[
  {
    "id": "ChIJR80Wwcoi2jERWfhrUz-n24Y",
    "name": "Pet Lovers Centre - Bedok Mall",
    "category": "supplies",
    "address": "311 New Upper Changi Rd, #B2 - 59 Bedok Mall, Singapore 467360",
    "lat": 1.3245483999999998,
    "lng": 103.9288892,
    "website": "https://www.petloverscentre.com/",
    "phone": "6844 9791",
    "rating": 4.2,
    "userRatingCount": 160,
    "verificationStatus": "verified",
    "openNow": null
  },
  {
    "id": "ChIJkaIuTuUW2jER0jvkeQGdb7c",
    "name": "Magic Kitchen",
    "category": "cafe",
    "address": "529 Ang Mo Kio Ave 10, #01-2335, Singapore 560529",
    "lat": 1.3722784,
    "lng": 103.8553647,
    "phone": "6453 3781",
    "rating": 4.3,
    "userRatingCount": 325,
    "verificationStatus": "verified",
    "openNow": null
  },
  {
    "id": "ChIJ-9p5KjA92jERaT2wTKKu2s8",
    "name": "GIG Cafe",
    "category": "cafe",
    "address": "Blk 419 Tampines Street 41, #01-104, Singapore 520419",
    "lat": 1.3577348999999999,
    "lng": 103.9466442,
    "website": "https://gigcoffee.com.sg/",
    "phone": "6588 5688",
    "rating": 4.5,
    "userRatingCount": 293,
    "verificationStatus": "verified",
    "openNow": null
  },
  {
    "id": "ChIJPX88s_AZ2jERG0TirQPHyl0",
    "name": "What The Pug",
    "category": "cafe",
    "address": "80 Haji Ln, Singapore 189271",
    "lat": 1.3015786,
    "lng": 103.8585288,
    "website": "http://www.beau.com.sg/",
    "phone": "6293 3350",
    "rating": 4.4,
    "userRatingCount": 291,
    "verificationStatus": "verified",
    "openNow": null
  },
  {
    "id": "ChIJMSTVeTsZ2jERJChbJmOAEyg",
    "name": "Snow Pawttage | Reservation required",
    "category": "cafe",
    "address": "723 Geylang Rd, Singapore 389634",
    "lat": 1.3148187999999998,
    "lng": 103.8901362,
    "website": "https://www.instagram.com/samoyedcafe.sgsnowpawttage?igsh=MW9kYXd6Mnp3OTdvYw==",
    "rating": 4.9,
    "userRatingCount": 288,
    "verificationStatus": "verified",
    "openNow": null
  },
  {
    "id": "ChIJo0JASDoX2jERdFmLvAhKi7E",
    "name": "State Of Affairs",
    "category": "cafe",
    "address": "183 Upper Thomson Rd, #01-02, Singapore 574332",
    "lat": 1.3509022,
    "lng": 103.8355948,
    "website": "http://www.stateofaffairs.sg/",
    "phone": "8098 0183",
    "rating": 4.3,
    "userRatingCount": 287,
    "verificationStatus": "verified",
    "openNow": null
  },
  {
    "id": "ChIJQ2iAPgAT2jERHT-jqpQ8gw8",
    "name": "Watering Hole Cafe",
    "category": "cafe",
    "address": "20 Mandai Lake Rd, Singapore 729825",
    "lat": 1.4086157,
    "lng": 103.7822327,
    "website": "https://www.mandai.com/en/dine-and-shop/dining-outlets.html",
    "rating": 4.7,
    "userRatingCount": 273,
    "verificationStatus": "verified",
    "openNow": null
  },
  {
    "id": "ChIJ9UVmKtsX2jERYryVc5sHloY",
    "name": "LoFi X Whisk by M",
    "category": "cafe",
    "address": "108 Hougang Ave 1, #01-1281, Singapore 530108",
    "lat": 1.352862,
    "lng": 103.88992599999999,
    "website": "https://order.dinlr.com/lofi-online",
    "phone": "8314 7672",
    "rating": 4.7,
    "userRatingCount": 255,
    "verificationStatus": "verified",
    "openNow": null
  },
  {
    "id": "ChIJyyaE0q4e2jERSZ9xGmqPcI0",
    "name": "Sofitel Singapore Sentosa",
    "category": "hotel",
    "address": "2 Bukit Manis Rd, Sentosa, Singapore 099891",
    "lat": 1.2457019,
    "lng": 103.8277056,
    "website": "http://sofitel.accor.com/hotels/9474?merchantid=seo-maps-SG-9474&sourceid=aw-cen&utm_source=google+Maps&utm_medium=seo+maps&utm_campaign=seo+maps&utm_term=Sofitel-Launch",
    "phone": "6708 8310",
    "rating": 4.3,
    "userRatingCount": 6042,
    "verificationStatus": "verified",
    "openNow": null
  },
  {
    "id": "ChIJZRZ9yroZ2jER4R3Hm0_9Phs",
    "name": "InterContinental Singapore",
    "category": "hotel",
    "address": "80 Middle Rd, Singapore 188966",
    "lat": 1.2984504,
    "lng": 103.85486499999999,
    "website": "https://www.ihg.com/intercontinental/hotels/us/en/singapore/sinhb/hoteldetail?cm_mmc=GoogleMaps-_-IC-_-SG-_-SINHB",
    "phone": "6338 7366",
    "rating": 4.6,
    "userRatingCount": 5381,
    "verificationStatus": "verified",
    "openNow": null
  },
  {
    "id": "ChIJ7xZ3TVUZ2jERfjDHnlIvir8",
    "name": "Amara Sanctuary Sentosa",
    "category": "hotel",
    "address": "Sentosa Island, 1 Larkhill Rd, Singapore 099394",
    "lat": 1.2520799000000002,
    "lng": 103.822159,
    "website": "https://sentosa.amarahotels.com/",
    "phone": "6825 3888",
    "rating": 4.3,
    "userRatingCount": 4478,
    "verificationStatus": "verified",
    "openNow": null
  },
  {
    "id": "ChIJjS4cuwoZ2jERCTeN-k9LUIE",
    "name": "Paradox Singapore",
    "category": "hotel",
    "address": "20 Merchant Rd, Singapore 058281",
    "lat": 1.2884308,
    "lng": 103.8458053,
    "website": "https://www.paradoxhotels.com/singapore/?utm_source=local-directories&utm_medium=organic&utm_campaign=travelclick-localconnect",
    "phone": "6337 2288",
    "rating": 4.4,
    "userRatingCount": 4463,
    "verificationStatus": "verified",
    "openNow": null
  },
  {
    "id": "ChIJqbrxYIwZ2jERV9rTVcsl1Lk",
    "name": "Four Seasons Hotel Singapore",
    "category": "hotel",
    "address": "190 Orchard Blvd, Singapore 248646",
    "lat": 1.3050876999999999,
    "lng": 103.828718,
    "website": "https://www.fourseasons.com/singapore/?utm_source=google&utm_medium=organicsearch&utm_campaign=tor-sin-hre-mid-seo-na&utm_content=na-na&utm_term=na",
    "phone": "6734 1110",
    "rating": 4.6,
    "userRatingCount": 3285,
    "verificationStatus": "verified",
    "openNow": null
  },
  {
    "id": "ChIJF75fVaoe2jERZYVUuHEz-lQ",
    "name": "Capella Singapore",
    "category": "hotel",
    "address": "1 The Knolls, Sentosa Island, Singapore 098297",
    "lat": 1.2497222,
    "lng": 103.8241667,
    "website": "https://www.capellahotels.com/en/capella-singapore?utm_source=google&utm_medium=organic&utm_campaign=gbpcapella_singapore",
    "phone": "6377 8888",
    "rating": 4.7,
    "userRatingCount": 2659,
    "verificationStatus": "verified",
    "openNow": null
  },
  {
    "id": "ChIJnaclKngb2jERIZvtEgenn8w",
    "name": "Village Hotel Sentosa",
    "category": "hotel",
    "address": "10 Artillery Ave, #02-01 Palawan Ridge, Sentosa Island, Singapore 099951",
    "lat": 1.2523958,
    "lng": 103.8201982,
    "website": "https://www.villagehotels.asia/en/hotels/village-hotel-sentosa?utm_source=googleplaces_vhs&utm_medium=organic",
    "phone": "6722 0800",
    "rating": 4.3,
    "userRatingCount": 1797,
    "verificationStatus": "verified",
    "openNow": null
  },
  {
    "id": "ChIJR9HlRHIY2jERWtlEAWf1SsA",
    "name": "Hotel Indigo Singapore Katong by IHG",
    "category": "hotel",
    "address": "86 E Coast Rd, Singapore 428788",
    "lat": 1.304903,
    "lng": 103.904574,
    "website": "https://www.ihg.com/hotelindigo/hotels/us/en/singapore/sinki/hoteldetail?cm_mmc=GoogleMaps-_-IN-_-SG-_-SINKI",
    "phone": "6723 7001",
    "rating": 4.6,
    "userRatingCount": 1429,
    "verificationStatus": "verified",
    "openNow": null
  },
  {
    "id": "ChIJZVxhVDsZ2jERaRXJqklVqHI",
    "name": "Mondrian Singapore Duxton",
    "category": "hotel",
    "address": "16A Duxton Hl, 16A, Singapore 089970",
    "lat": 1.2787133,
    "lng": 103.84265459999999,
    "website": "https://mondrianhotels.com/singapore-duxton/?utm_source=google&utm_medium=organic&utm_campaign=gmb-website&utm_content=website_button",
    "phone": "6019 8888",
    "rating": 4.3,
    "userRatingCount": 1165,
    "verificationStatus": "verified",
    "openNow": null
  },
  {
    "id": "ChIJy5agVYEZ2jERx_Hsg1wmoQc",
    "name": "Fraser Suites Singapore",
    "category": "hotel",
    "address": "491A River Valley Rd, Singapore 248372",
    "lat": 1.293189,
    "lng": 103.82745430000001,
    "website": "http://www.frasershospitality.com/en/singapore/fraser-suites-singapore/?utm_source=google_map&utm_medium=organic",
    "phone": "6737 5800",
    "rating": 4.4,
    "userRatingCount": 594,
    "verificationStatus": "verified",
    "openNow": null
  },
  {
    "id": "ChIJvTOX_40Z2jERNzvPBZ4gm3E",
    "name": "Orchard Parksuites",
    "category": "hotel",
    "address": "11 Orchard Turn, Singapore 238800",
    "lat": 1.3030393999999998,
    "lng": 103.8328135,
    "website": "https://www.fareasthospitality.com/en/serviced-residences/orchard-parksuites.aspx?utm_source=googleplaces_ops&utm_medium=organic",
    "phone": "6019 0433",
    "rating": 4.4,
    "userRatingCount": 513,
    "verificationStatus": "verified",
    "openNow": null
  },
  {
    "id": "ChIJ7_TWkIQZ2jERIj_KXYXP7RU",
    "name": "Great World Residences",
    "category": "hotel",
    "address": "2 Kim Seng Walk, Singapore 239404",
    "lat": 1.2945289,
    "lng": 103.83139709999999,
    "website": "http://stay.greatworld.com.sg/?utm_source=google-local&utm_medium=organic&utm_campaign=gmb",
    "phone": "6722 7000",
    "rating": 4.4,
    "userRatingCount": 370,
    "verificationStatus": "verified",
    "openNow": null
  },
  {
    "id": "ChIJPf60TCsZ2jERgsirqtErjKk",
    "name": "Citadines Balestier Singapore",
    "category": "hotel",
    "address": "207 Balestier Rd, #05-01, Singapore 329683",
    "lat": 1.3210851,
    "lng": 103.8526651,
    "website": "https://www.discoverasr.com/en/citadines/singapore/citadines-balestier-singapore?utm_source=google&utm_medium=maps&utm_campaign=hq-google-maps-alwayson--all-en-sg-sg-citadinesbalestiersingapore--gbp&--&cid=map::gg::hq:ind:::all:en:sg:sg:citadinesbalestiersingapore:0:gbp:0:::",
    "phone": "6434 8888",
    "rating": 4.4,
    "userRatingCount": 355,
    "verificationStatus": "verified",
    "openNow": null
  },
  {
    "id": "ChIJlfvUlusZ2jERnN04sdWeKoo",
    "name": "Citadines Raffles Place Singapore",
    "category": "hotel",
    "address": "88 Market St, Level 9, Singapore 048948",
    "lat": 1.2838793,
    "lng": 103.8500724,
    "website": "https://www.discoverasr.com/en/citadines/singapore/citadines-raffles-place-singapore?utm_source=google&utm_medium=maps&utm_campaign=hq-google-maps-alwayson--all-en-sg-sg-citadinesrafflesplacesingapore--gbp&--&cid=map::gg::hq:ind:::all:en:sg:sg:citadinesrafflesplacesingapore:0:gbp:0:::",
    "phone": "6958 4188",
    "rating": 4.2,
    "userRatingCount": 328,
    "verificationStatus": "verified",
    "openNow": null
  },
  {
    "id": "ChIJ0cGco1Qf2jERVBqlD7ZvNQ0",
    "name": "Raffles Sentosa Singapore",
    "category": "hotel",
    "address": "4 Bukit Manis Rd, Sentosa, Singapore 099947",
    "lat": 1.2479824,
    "lng": 103.8276125,
    "website": "https://all.accor.com/lien_externe.svlt?goto=fiche_hotel&code_hotel=B5Q2&merchantid=seo-maps-Singapore-B5Q2&sourceid=aw-cen&utm_medium=seo%20maps&utm_source=google%20Maps&utm_campaign=seo%20maps",
    "phone": "6032 4688",
    "rating": 4.5,
    "userRatingCount": 319,
    "verificationStatus": "verified",
    "openNow": null
  },
  {
    "id": "ChIJA-LNmZcZ2jERz7Z0kmA9cvI",
    "name": "Adina Singapore Orchard",
    "category": "hotel",
    "address": "121 Penang Rd, Singapore 238464",
    "lat": 1.2995207,
    "lng": 103.8419601,
    "website": "https://www.adinasingapore.com/?utm_source=googleplaces_aso&utm_medium=organic",
    "phone": "6019 0410",
    "rating": 4.3,
    "userRatingCount": 289,
    "verificationStatus": "verified",
    "openNow": null
  },
  {
    "id": "ChIJ16gu35IZ2jER1xm7uDaAZNI",
    "name": "Oakwood Studios Singapore",
    "category": "hotel",
    "address": "18 Mount Elizabeth, Singapore 228514",
    "lat": 1.3069416999999999,
    "lng": 103.83613439999999,
    "website": "https://www.discoverasr.com/en/oakwood/singapore/oakwood-studios-singapore?utm_source=google&utm_medium=maps&utm_campaign=hq-google-maps-alwayson--all-en-sg-sg-oakwoodstudiossingapore--gbp&--&cid=map::gg::hq:ind:::all:en:sg:sg:oakwoodstudiossingapore:0:gbp:0:::",
    "phone": "6950 7888",
    "rating": 4.5,
    "userRatingCount": 277,
    "verificationStatus": "verified",
    "openNow": null
  },
  {
    "id": "ChIJVdv5mfoa2jERF3GXNJ7AJVo",
    "name": "Oasia Residence, Singapore",
    "category": "hotel",
    "address": "123 W Coast Cres, Located within Seahill, Singapore 126779",
    "lat": 1.2990979,
    "lng": 103.7648561,
    "website": "https://www.oasiahotels.com/en/singapore/serviced-residences/oasia-residence-singapore?utm_source=googleplaces_ors&utm_medium=organic",
    "phone": "6254 1746",
    "rating": 4.6,
    "userRatingCount": 273,
    "verificationStatus": "verified",
    "openNow": null
  },
  {
    "id": "ChIJE8QfUwAZ2jER-O82OmOuUjw",
    "name": "QT Singapore",
    "category": "hotel",
    "address": "35 Robinson Rd, Singapore 068876",
    "lat": 1.2799728,
    "lng": 103.8497276,
    "website": "https://www.qthotels.com/singapore/?utm_source=google&utm_medium=organic&utm_campaign=gmb",
    "phone": "6701 6800",
    "rating": 4.6,
    "userRatingCount": 248,
    "verificationStatus": "verified",
    "openNow": null
  },
  {
    "id": "ChIJIbYcWp4Z2jEREEBncMMcavQ",
    "name": "Village Residence Robertson Quay",
    "category": "hotel",
    "address": "30 Robertson Quay, Singapore 238251",
    "lat": 1.2912698999999999,
    "lng": 103.84143999999999,
    "website": "https://www.villagehotels.asia/en/serviced-residences/village-residence-robertson-quay?utm_source=googleplaces_rsv&utm_medium=organic",
    "phone": "6019 0366",
    "rating": 4.4,
    "userRatingCount": 219,
    "verificationStatus": "verified",
    "openNow": null
  },
  {
    "id": "ChIJsQy_FZcZ2jERs0T0JZqMZ8U",
    "name": "Lanson Place Winsland, Singapore",
    "category": "hotel",
    "address": "167 Penang Rd, Singapore 238462",
    "lat": 1.2996481,
    "lng": 103.8404944,
    "website": "https://lansonplace.com/winsland/",
    "phone": "6834 0880",
    "rating": 4.7,
    "userRatingCount": 173,
    "verificationStatus": "verified",
    "openNow": null
  },
  {
    "id": "ChIJhSIQKfIa2jERMoN3GHZ4d-w",
    "name": "Village Residence West Coast",
    "category": "hotel",
    "address": "154 W Coast Rd, Singapore 127371",
    "lat": 1.3033392,
    "lng": 103.7658743,
    "website": "https://www.villagehotels.asia/en/serviced-residences/village-residence-west-coast?utm_source=googleplaces_vrwc&utm_medium=organic",
    "phone": "6019 0371",
    "rating": 4.4,
    "userRatingCount": 144,
    "verificationStatus": "verified",
    "openNow": null
  },
  {
    "id": "ChIJl24zGgAZ2jERBirWn7tYkVc",
    "name": "Alma House",
    "category": "hotel",
    "address": "46 Kim Yam Rd, #03-03, Singapore 239351",
    "lat": 1.2922031999999999,
    "lng": 103.8390398,
    "website": "https://www.almahouse.sg/",
    "phone": "9853 7177",
    "rating": 4.3,
    "userRatingCount": 144,
    "verificationStatus": "verified",
    "openNow": null
  },
  {
    "id": "ChIJzfcnKcAZ2jERv7TnhIwZHVE",
    "name": "The Standard, Singapore",
    "category": "hotel",
    "address": "12 Orange Grove Rd, Singapore 258353",
    "lat": 1.3101798999999998,
    "lng": 103.82617139999999,
    "website": "https://www.hyatt.com/en-US/hotel/singapore/the-standard-singapore/sinss?src=corp_lclb_google_seo_sinss&utm_source=google&utm_medium=organic&utm_campaign=lmr",
    "phone": "6040 1888",
    "rating": 4.4,
    "userRatingCount": 135,
    "verificationStatus": "verified",
    "openNow": null
  },
  {
    "id": "ChIJNZbjTGUZ2jERKa8kKzmbkO8",
    "name": "Fraser Residence Orchard, Singapore",
    "category": "hotel",
    "address": "31 Paterson Rd, Singapore 238522",
    "lat": 1.3013843,
    "lng": 103.8298277,
    "website": "http://www.frasershospitality.com/en/singapore/fraser-residence-orchard-singapore/?utm_source=google_map&utm_medium=organic",
    "phone": "6731 0888",
    "rating": 4.6,
    "userRatingCount": 125,
    "verificationStatus": "verified",
    "openNow": null
  },
  {
    "id": "ChIJl48VRQ4Z2jER8BcCpeEhkwg",
    "name": "Aurealis Serviced Residence at Marina Bay",
    "category": "hotel",
    "address": "2 Marina Blvd, Singapore 018987",
    "lat": 1.2813793000000002,
    "lng": 103.8528525,
    "website": "https://www.aurealisgroup.com/",
    "phone": "6509 0100",
    "rating": 4.9,
    "userRatingCount": 111,
    "verificationStatus": "verified",
    "openNow": null
  },
  {
    "id": "ChIJB1H3aJsQ2jERu3VtVJgQ1kE",
    "name": "Wilby Residences Bukit Timah",
    "category": "hotel",
    "address": "25 Wilby Rd, Singapore 276300",
    "lat": 1.3321565,
    "lng": 103.78839959999999,
    "website": "http://www.wilbyresidences.com/",
    "phone": "6305 0505",
    "rating": 4.4,
    "userRatingCount": 109,
    "verificationStatus": "verified",
    "openNow": null
  },
  {
    "id": "ChIJK7xLl1gZ2jERP_GdUY9XNLo",
    "name": "VivoCity",
    "category": "mall",
    "address": "1 HarbourFront Walk, Singapore 098585",
    "lat": 1.2647138999999998,
    "lng": 103.8231658,
    "website": "http://www.vivocity.com.sg/",
    "phone": "6377 6870",
    "rating": 4.5,
    "userRatingCount": 54287,
    "verificationStatus": "verified",
    "openNow": null
  },
  {
    "id": "ChIJeRqAraYX2jERQpyIAXSU1SU",
    "name": "NEX",
    "category": "mall",
    "address": "Serangoon Central, 23, Singapore 556083",
    "lat": 1.3507155,
    "lng": 103.8720247,
    "website": "http://www.nex.com.sg/",
    "phone": "6416 6366",
    "rating": 4.3,
    "userRatingCount": 22025,
    "verificationStatus": "verified",
    "openNow": null
  },
  {
    "id": "ChIJb20nHg8Q2jERuBnOGGnuq-s",
    "name": "Jem",
    "category": "mall",
    "address": "50 Jurong Gateway Rd, Singapore 608549",
    "lat": 1.332647,
    "lng": 103.7433111,
    "website": "http://www.jem.sg/",
    "phone": "6225 5536",
    "rating": 4.3,
    "userRatingCount": 17610,
    "verificationStatus": "verified",
    "openNow": null
  },
  {
    "id": "ChIJLTCPpuQV2jERYMYF_2uprDE",
    "name": "Waterway Point",
    "category": "mall",
    "address": "83 Punggol Central, Singapore 828761",
    "lat": 1.4064412,
    "lng": 103.9020846,
    "website": "http://www.waterwaypoint.com.sg/",
    "phone": "6812 7300",
    "rating": 4.4,
    "userRatingCount": 14770,
    "verificationStatus": "verified",
    "openNow": null
  },
  {
    "id": "ChIJ82AoVA8Q2jERkHnr1RPW9B4",
    "name": "Westgate",
    "category": "mall",
    "address": "3 Gateway Dr, Singapore 608532",
    "lat": 1.334382,
    "lng": 103.7427836,
    "website": "https://www.capitaland.com/sg/malls/westgate/en.html",
    "phone": "6908 3737",
    "rating": 4.3,
    "userRatingCount": 14718,
    "verificationStatus": "verified",
    "openNow": null
  },
  {
    "id": "ChIJl_sOMpIZ2jERKgmuCf4FCs0",
    "name": "Paragon",
    "category": "mall",
    "address": "290 Orchard Rd, Singapore 238859",
    "lat": 1.3039633,
    "lng": 103.8360565,
    "website": "https://www.paragon.com.sg/",
    "rating": 4.4,
    "userRatingCount": 14006,
    "verificationStatus": "verified",
    "openNow": null
  },
  {
    "id": "ChIJg0iEvagT2jERLpza72gaJ08",
    "name": "Causeway Point",
    "category": "mall",
    "address": "1 Woodlands Sq, Singapore 738099",
    "lat": 1.4360933,
    "lng": 103.78594710000002,
    "website": "https://www.causewaypoint.com.sg/",
    "phone": "6894 2237",
    "rating": 4.3,
    "userRatingCount": 13688,
    "verificationStatus": "verified",
    "openNow": null
  },
  {
    "id": "ChIJPyKq0o082jERd1bghvwiadU",
    "name": "Changi City Point",
    "category": "mall",
    "address": "5 Changi Business Park Central 1, Singapore 486038",
    "lat": 1.3342732,
    "lng": 103.96273869999999,
    "website": "http://www.changicitypoint.com.sg/",
    "rating": 4.3,
    "userRatingCount": 12381,
    "verificationStatus": "verified",
    "openNow": null
  },
  {
    "id": "ChIJwSNJ77oZ2jERuX8Bl5bU2tI",
    "name": "Bugis+",
    "category": "mall",
    "address": "201 Victoria St, Singapore 188067",
    "lat": 1.2995955,
    "lng": 103.8542191,
    "website": "http://www.bugisplus.com.sg/en/",
    "rating": 4.3,
    "userRatingCount": 12300,
    "verificationStatus": "verified",
    "openNow": null
  },
  {
    "id": "ChIJg6KI8ZEZ2jER9W7OwvUXPRs",
    "name": "Takashimaya Shopping Centre",
    "category": "mall",
    "address": "391 Orchard Rd, Singapore 238872",
    "lat": 1.3024048,
    "lng": 103.8347024,
    "website": "https://www.takashimayasc.com.sg/",
    "phone": "6738 1111",
    "rating": 4.5,
    "userRatingCount": 11965,
    "verificationStatus": "verified",
    "openNow": null
  },
  {
    "id": "ChIJ18C-mwoZ2jERlpSawcucgk0",
    "name": "Clarke Quay Central",
    "category": "mall",
    "address": "6 Eu Tong Sen St, Singapore 059817",
    "lat": 1.2890252,
    "lng": 103.8466098,
    "website": "https://www.fareastmalls.com.sg/Clarke-Quay-Central/",
    "rating": 4.3,
    "userRatingCount": 11147,
    "verificationStatus": "verified",
    "openNow": null
  },
  {
    "id": "ChIJq8UGJo4a2jER0ypiQDLiXpg",
    "name": "The Clementi Mall",
    "category": "mall",
    "address": "3155 Commonwealth Ave W, Singapore 129588",
    "lat": 1.314918,
    "lng": 103.76430889999999,
    "website": "https://www.theclementimall.com/",
    "phone": "6659 4118",
    "rating": 4.1,
    "userRatingCount": 10604,
    "verificationStatus": "verified",
    "openNow": null
  },
  {
    "id": "ChIJy5hMcg8X2jERZ88iA4l4aBY",
    "name": "Compass One",
    "category": "mall",
    "address": "1 Sengkang Square, Singapore 545078",
    "lat": 1.3920064,
    "lng": 103.89505,
    "website": "http://www.compassone.sg/",
    "phone": "6819 0733",
    "rating": 4.2,
    "userRatingCount": 10127,
    "verificationStatus": "verified",
    "openNow": null
  },
  {
    "id": "ChIJjQcl90sY2jER0d9ui1pFp9s",
    "name": "Kallang Wave Mall",
    "category": "mall",
    "address": "1 Stadium Pl, Singapore 397628",
    "lat": 1.3026669,
    "lng": 103.87376409999999,
    "website": "https://www.sportshub.com.sg/shop-dine",
    "phone": "6539 9276",
    "rating": 4.3,
    "userRatingCount": 9184,
    "verificationStatus": "verified",
    "openNow": null
  },
  {
    "id": "ChIJ91hVlEIa2jERm_cxYZ2WKow",
    "name": "The Star Vista",
    "category": "mall",
    "address": "1 Vista Exchange Grn, Singapore 138617",
    "lat": 1.3068072,
    "lng": 103.7883997,
    "website": "https://thestarvista.sg/",
    "phone": "6694 3111",
    "rating": 4.3,
    "userRatingCount": 8931,
    "verificationStatus": "verified",
    "openNow": null
  },
  {
    "id": "ChIJ_8HAraQR2jERaLrfjzD5k7Y",
    "name": "Hillion Mall",
    "category": "mall",
    "address": "17 Petir Rd, Singapore 678278",
    "lat": 1.3785144,
    "lng": 103.76301959999999,
    "website": "https://www.hillionmall.com.sg/",
    "phone": "6769 0009",
    "rating": 4.2,
    "userRatingCount": 8817,
    "verificationStatus": "verified",
    "openNow": null
  },
  {
    "id": "ChIJs5CBlukR2jER-uyFhQ2NFbU",
    "name": "Lot One",
    "category": "mall",
    "address": "21 Choa Chu Kang Ave 4, Singapore 689812",
    "lat": 1.3851168999999999,
    "lng": 103.7449142,
    "website": "https://www.capitaland.com/sg/malls/lotone/en.html",
    "phone": "6314 6200",
    "rating": 4.1,
    "userRatingCount": 7854,
    "verificationStatus": "verified",
    "openNow": null
  },
  {
    "id": "ChIJB14IQoMZ2jERyjiLXouuJe0",
    "name": "Great World",
    "category": "mall",
    "address": "1 Kim Seng Promenade, Singapore 237994",
    "lat": 1.2936417,
    "lng": 103.8319293,
    "website": "https://shop.greatworld.com.sg/",
    "phone": "6737 3855",
    "rating": 4.3,
    "userRatingCount": 7673,
    "verificationStatus": "verified",
    "openNow": null
  },
  {
    "id": "ChIJHYe2MX0T2jER6vve5JwvRvw",
    "name": "Sun Plaza",
    "category": "mall",
    "address": "30 Sembawang Dr, Singapore 757713",
    "lat": 1.4481944999999998,
    "lng": 103.81962469999999,
    "website": "https://www.sunplaza.com.sg/",
    "phone": "6481 4458",
    "rating": 4,
    "userRatingCount": 6033,
    "verificationStatus": "verified",
    "openNow": null
  },
  {
    "id": "ChIJU8zODXwZ2jERNsDnX0rcqpQ",
    "name": "PLQ Mall",
    "category": "mall",
    "address": "10 Paya Lebar Rd, Singapore 409057",
    "lat": 1.3176666,
    "lng": 103.89316269999999,
    "website": "https://www.payalebarquarter.com/",
    "phone": "6955 8800",
    "rating": 4.4,
    "userRatingCount": 5678,
    "verificationStatus": "verified",
    "openNow": null
  },
  {
    "id": "ChIJbV9Xho0Z2jERrixofz0u32Q",
    "name": "TANGS at Tang Plaza",
    "category": "mall",
    "address": "310 Orchard Rd, Tang Plaza, Singapore 238864",
    "lat": 1.3047955,
    "lng": 103.8329225,
    "website": "https://www.tangs.com/",
    "phone": "6737 5500",
    "rating": 4.3,
    "userRatingCount": 5478,
    "verificationStatus": "verified",
    "openNow": null
  },
  {
    "id": "ChIJ5-zrBoEU2jERhLnuZ0bgvUw",
    "name": "Sembawang Shopping Centre",
    "category": "mall",
    "address": "604 Sembawang Rd, Singapore 758459",
    "lat": 1.4416149999999999,
    "lng": 103.8246417,
    "website": "http://www.sembawangsc.com.sg/",
    "phone": "6757 8000",
    "rating": 4,
    "userRatingCount": 5302,
    "verificationStatus": "verified",
    "openNow": null
  },
  {
    "id": "ChIJfZmGM5EZ2jERgDzwv5rdA-U",
    "name": "Orchard Gateway",
    "category": "mall",
    "address": "277 Orchard Rd, Singapore 238858",
    "lat": 1.3007001999999999,
    "lng": 103.8394225,
    "website": "https://www.orchardgateway.sg/",
    "phone": "6513 4633",
    "rating": 4.3,
    "userRatingCount": 4288,
    "verificationStatus": "verified",
    "openNow": null
  },
  {
    "id": "ChIJoavrZ-cZ2jEROHbTzqYlVM4",
    "name": "Square 2",
    "category": "mall",
    "address": "10 Sinaran Dr, #02-04, Singapore 307506",
    "lat": 1.3208322,
    "lng": 103.8441474,
    "website": "https://www.fareastmalls.com.sg/Square-2/",
    "rating": 4.1,
    "userRatingCount": 4138,
    "verificationStatus": "verified",
    "openNow": null
  },
  {
    "id": "ChIJmXU4W4oZ2jERDul4uxP0pYc",
    "name": "Tanglin Mall",
    "category": "mall",
    "address": "163 Tanglin Rd, Singapore 247933",
    "lat": 1.3048319,
    "lng": 103.8234545,
    "website": "http://www.tanglinmall.com.sg/",
    "phone": "6736 4922",
    "rating": 4.2,
    "userRatingCount": 3566,
    "verificationStatus": "verified",
    "openNow": null
  },
  {
    "id": "ChIJZdlKPGAX2jERZlOP1cN5tpE",
    "name": "Zhongshan Mall",
    "category": "mall",
    "address": "20 Ah Hood Rd, Singapore 329984",
    "lat": 1.3270617999999998,
    "lng": 103.8464431,
    "website": "https://zhongshanmall.com.sg/",
    "phone": "6250 2200",
    "rating": 4.1,
    "userRatingCount": 3357,
    "verificationStatus": "verified",
    "openNow": null
  },
  {
    "id": "ChIJIf-M9qAT2jERd0qCLuYmM3E",
    "name": "888 Plaza",
    "category": "mall",
    "address": "888 Woodlands Drive 50, Singapore 730888",
    "lat": 1.438178,
    "lng": 103.7955224,
    "rating": 4.1,
    "userRatingCount": 3185,
    "verificationStatus": "verified",
    "openNow": null
  },
  {
    "id": "ChIJdVshco0Z2jER5H03m10YGas",
    "name": "Shaw Centre",
    "category": "mall",
    "address": "1 Scotts Rd, Singapore 228208",
    "lat": 1.3062932,
    "lng": 103.8318472,
    "website": "http://www.shawcentre.sg/",
    "phone": "6887 5881",
    "rating": 4.2,
    "userRatingCount": 3143,
    "verificationStatus": "verified",
    "openNow": null
  },
  {
    "id": "ChIJSX0T2lMQ2jERa6Ixq0d5hkA",
    "name": "The Rail Mall",
    "category": "mall",
    "address": "Upper Bukit Timah Rd, Fuyong Estate, Singapore 678040",
    "lat": 1.3580838,
    "lng": 103.7679036,
    "website": "http://www.railmall.com.sg/",
    "phone": "6507 0180",
    "rating": 4.1,
    "userRatingCount": 2981,
    "verificationStatus": "verified",
    "openNow": null
  },
  {
    "id": "ChIJQe8Ik4wZ2jERM78XCNBVhe0",
    "name": "Forum The Shopping Mall",
    "category": "mall",
    "address": "583 Orchard Rd, Singapore 238884",
    "lat": 1.3061667,
    "lng": 103.8284991,
    "website": "http://forumtheshoppingmall.com.sg/",
    "phone": "6732 2469",
    "rating": 4,
    "userRatingCount": 2777,
    "verificationStatus": "verified",
    "openNow": null
  },
  {
    "id": "ChIJqXtKrnIT2jER7Gg-cMTC1PE",
    "name": "Woodlands Mart",
    "category": "mall",
    "address": "768 Woodlands Ave 6, Singapore 730768",
    "lat": 1.4454882999999998,
    "lng": 103.79799,
    "rating": 4.1,
    "userRatingCount": 2666,
    "verificationStatus": "verified",
    "openNow": null
  },
  {
    "id": "ChIJ3Zrkj1IQ2jER7alm3mrpVPQ",
    "name": "HillV2",
    "category": "mall",
    "address": "4 Hillview Rise, Singapore 667979",
    "lat": 1.363354,
    "lng": 103.7643204,
    "website": "https://www.fareastmalls.com.sg/hillv2",
    "rating": 4.1,
    "userRatingCount": 2545,
    "verificationStatus": "verified",
    "openNow": null
  },
  {
    "id": "ChIJdR-cZRs92jERlcWm17Xs_oo",
    "name": "Tampines N2 Shopping Street",
    "category": "mall",
    "address": "208A Tampines Ave 2, Singapore 521208",
    "lat": 1.3524446,
    "lng": 103.9539669,
    "rating": 4.2,
    "userRatingCount": 1894,
    "verificationStatus": "verified",
    "openNow": null
  },
  {
    "id": "ChIJaWh-cCwV2jERSnTOal0Uj8M",
    "name": "Junction Nine",
    "category": "mall",
    "address": "18 Yishun Ave 9, Singapore 768897",
    "lat": 1.4331479999999999,
    "lng": 103.8417427,
    "website": "https://junctionnine.sg/",
    "phone": "6255 0717",
    "rating": 4.1,
    "userRatingCount": 1766,
    "verificationStatus": "verified",
    "openNow": null
  },
  {
    "id": "ChIJY3E5sAI92jER_fY5uKZt2Bc",
    "name": "Tampines Mart",
    "category": "mall",
    "address": "Tampines Street 32, Singapore 529287",
    "lat": 1.3539206,
    "lng": 103.95989259999999,
    "phone": "6789 7772",
    "rating": 4.1,
    "userRatingCount": 1621,
    "verificationStatus": "verified",
    "openNow": null
  },
  {
    "id": "ChIJPwriazYQ2jER8tcEv-XxROQ",
    "name": "Bukit Gombak Neighbourhood Centre",
    "category": "mall",
    "address": "373 Bukit Batok Street 31, Singapore 650373",
    "lat": 1.3586192,
    "lng": 103.75046239999999,
    "rating": 4.3,
    "userRatingCount": 1610,
    "verificationStatus": "verified",
    "openNow": null
  },
  {
    "id": "ChIJyZ4g7KUZ2jERap2fFAXE3a8",
    "name": "South Beach Avenue",
    "category": "mall",
    "address": "26 Beach Rd, Singapore 189768",
    "lat": 1.2942384,
    "lng": 103.8557517,
    "website": "https://southbeach.sg/",
    "phone": "6672 5722",
    "rating": 4.4,
    "userRatingCount": 1484,
    "verificationStatus": "verified",
    "openNow": null
  },
  {
    "id": "ChIJs5FVJhIX2jER7efvOK7ObVM",
    "name": "The Woodleigh Mall",
    "category": "mall",
    "address": "11 Bidadari Park Dr, Singapore 367803",
    "lat": 1.3386593000000002,
    "lng": 103.87176889999999,
    "website": "https://www.thewoodleighmall.com/",
    "phone": "6320 0129",
    "rating": 4,
    "userRatingCount": 1288,
    "verificationStatus": "verified",
    "openNow": null
  },
  {
    "id": "ChIJTW4fr5wT2jEReGufQu0QfWQ",
    "name": "Vista Point",
    "category": "mall",
    "address": "548 Woodlands Drive 44, Singapore 730548",
    "lat": 1.4313837,
    "lng": 103.7938289,
    "phone": "8803 7876",
    "rating": 4.2,
    "userRatingCount": 1227,
    "verificationStatus": "verified",
    "openNow": null
  },
  {
    "id": "ChIJR9HlRHIY2jER9RAgYi5Pqbs",
    "name": "Katong Square",
    "category": "mall",
    "address": "E Coast Rd, #86-88, Singapore 428788",
    "lat": 1.3048285,
    "lng": 103.9045422,
    "website": "http://katongsquare.com.sg/",
    "phone": "6387 6337",
    "rating": 4,
    "userRatingCount": 1154,
    "verificationStatus": "verified",
    "openNow": null
  },
  {
    "id": "ChIJw3DaQ4w92jERiq4bkOKxA0g",
    "name": "Market Square",
    "category": "mall",
    "address": "1 Pasir Ris Cl, Singapore 519599",
    "lat": 1.3768437999999998,
    "lng": 103.9552975,
    "website": "https://www.downtowneast.com.sg/",
    "phone": "6589 1688",
    "rating": 4.4,
    "userRatingCount": 810,
    "verificationStatus": "verified",
    "openNow": null
  },
  {
    "id": "ChIJf2SJA2sa2jERSrwcPU_QRvI",
    "name": "Raffles Holland V Mall",
    "category": "mall",
    "address": "118 Holland Ave, Singapore 278973",
    "lat": 1.3105304,
    "lng": 103.79635599999999,
    "website": "https://facebook.com/raffleshollandv/",
    "phone": "6262 3501",
    "rating": 4,
    "userRatingCount": 809,
    "verificationStatus": "verified",
    "openNow": null
  },
  {
    "id": "ChIJjT_ThNUT2jER5XX8cPcvRTw",
    "name": "The Woodgrove",
    "category": "mall",
    "address": "30 Woodlands Ave 1, Singapore 739065",
    "lat": 1.4291794,
    "lng": 103.78107820000001,
    "rating": 4.3,
    "userRatingCount": 787,
    "verificationStatus": "verified",
    "openNow": null
  },
  {
    "id": "ChIJAcrUCiIX2jERugq6oHt9OgQ",
    "name": "Bishan North Shopping Mall",
    "category": "mall",
    "address": "282 Bishan Street 22, Singapore 570282",
    "lat": 1.3582587,
    "lng": 103.844478,
    "rating": 4.1,
    "userRatingCount": 758,
    "verificationStatus": "verified",
    "openNow": null
  },
  {
    "id": "ChIJnV4ZVGoa2jERtOxCkkl9xvA",
    "name": "CS Fresh @ Holland Shopping Centre",
    "category": "mall",
    "address": "211 Holland Ave, #01-02,04,05 Holland Shopping Ctr, Singapore 278967",
    "lat": 1.3101604,
    "lng": 103.7954036,
    "website": "https://coldstorage.com.sg/?utm_source=googlemybusiness&utm_campaign=hollandvillage",
    "phone": "6891 8100",
    "rating": 4.1,
    "userRatingCount": 720,
    "verificationStatus": "verified",
    "openNow": null
  },
  {
    "id": "ChIJlwOQpJ4Z2jER5EGYnv1VcvE",
    "name": "New Bahru",
    "category": "mall",
    "address": "46 Kim Yam Rd, New Bahru, Singapore 239351",
    "lat": 1.2928106,
    "lng": 103.8386992,
    "website": "https://www.newbahru.com/",
    "rating": 4.1,
    "userRatingCount": 588,
    "verificationStatus": "verified",
    "openNow": null
  },
  {
    "id": "ChIJ3ShIxCc92jER20y0Rvqw-vc",
    "name": "N4 Neighbourhood Centre",
    "category": "mall",
    "address": "Tampines Street 43, Singapore 520477",
    "lat": 1.3605239,
    "lng": 103.9531662,
    "rating": 4.2,
    "userRatingCount": 567,
    "verificationStatus": "verified",
    "openNow": null
  },
  {
    "id": "ChIJGe2Jmu8Z2jERF13O2J2LQHY",
    "name": "Balmoral Plaza",
    "category": "mall",
    "address": "271 Bukit Timah Rd, Singapore 259708",
    "lat": 1.3166449,
    "lng": 103.8351761,
    "phone": "6589 8494",
    "rating": 4,
    "userRatingCount": 535,
    "verificationStatus": "verified",
    "openNow": null
  },
  {
    "id": "ChIJx0IhAbQ92jERBHWmI_pJ3U4",
    "name": "E!Avenue",
    "category": "mall",
    "address": "1 Pasir Ris Cl, Singapore 519599",
    "lat": 1.3768231,
    "lng": 103.95511069999999,
    "website": "https://www.downtowneast.com.sg/",
    "phone": "6282 7381",
    "rating": 4.4,
    "userRatingCount": 495,
    "verificationStatus": "verified",
    "openNow": null
  },
  {
    "id": "ChIJxyo7LVYR2jERqlNRm9RkBUM",
    "name": "Keat Hong Shopping Centre",
    "category": "mall",
    "address": "253 Choa Chu Kang Ave 1, Singapore 680253",
    "lat": 1.3774404999999998,
    "lng": 103.744394,
    "rating": 4,
    "userRatingCount": 421,
    "verificationStatus": "verified",
    "openNow": null
  },
  {
    "id": "ChIJV2n_PgoX2jERwpy8Mk8mhaY",
    "name": "The Poiz Centre",
    "category": "mall",
    "address": "51 Upper Serangoon Rd, Singapore 347697",
    "lat": 1.3315158,
    "lng": 103.8683822,
    "website": "http://thepoizcentre.com.sg/",
    "phone": "8866 3773",
    "rating": 4.1,
    "userRatingCount": 409,
    "verificationStatus": "verified",
    "openNow": null
  },
  {
    "id": "ChIJHT9PqWsa2jER7cXRi00lkjY",
    "name": "Holland Piazza",
    "category": "mall",
    "address": "3 Lor Liput, Singapore 277725",
    "lat": 1.3106826999999999,
    "lng": 103.7952282,
    "website": "https://m.facebook.com/hollandpiazzasg/",
    "rating": 4.1,
    "userRatingCount": 400,
    "verificationStatus": "verified",
    "openNow": null
  },
  {
    "id": "ChIJleHRO_wZ2jERDtVEaVmZLxw",
    "name": "Riverside Point",
    "category": "mall",
    "address": "30 Merchant Rd, Singapore 058282",
    "lat": 1.2894373,
    "lng": 103.84410629999999,
    "website": "https://www.fareastmalls.com.sg/riverside-point",
    "rating": 4.3,
    "userRatingCount": 358,
    "verificationStatus": "verified",
    "openNow": null
  },
  {
    "id": "ChIJ3Vl0QJEZ2jERRD1FJaKSd_M",
    "name": "DORS at Design Orchard",
    "category": "mall",
    "address": "250 Orchard Rd, #01-01 Design Orchard, Singapore 238905",
    "lat": 1.302084,
    "lng": 103.8377866,
    "website": "https://www.dors.com.sg/",
    "phone": "9379 4725",
    "rating": 4.3,
    "userRatingCount": 343,
    "verificationStatus": "verified",
    "openNow": null
  },
  {
    "id": "ChIJVVTKP1kb2jERCbrBLu7FAqw",
    "name": "Empress Mall",
    "category": "mall",
    "address": "8 Empress Rd, Singapore 260008",
    "lat": 1.3163869,
    "lng": 103.80536550000001,
    "rating": 4.2,
    "userRatingCount": 123,
    "verificationStatus": "verified",
    "openNow": null
  },
  {
    "id": "ChIJi0tjMTgZ2jERLCOOB3U7-D4",
    "name": "Asylum Coffeehouse",
    "category": "cafe",
    "address": "311 Jln Besar, Singapore 208970",
    "lat": 1.3113674,
    "lng": 103.85904889999999,
    "website": "https://www.asylumcoffeehouse.com/",
    "phone": "8921 9875",
    "rating": 4.7,
    "userRatingCount": 855,
    "verificationStatus": "verified",
    "openNow": null
  },
  {
    "id": "ChIJzSWzODUZ2jERZm7fIoA8ee0",
    "name": "Seng House — Hainanese-Western Café in Tanjong Katong",
    "category": "cafe",
    "address": "214 Tanjong Katong Rd, Singapore 437007",
    "lat": 1.3073245999999998,
    "lng": 103.89527129999999,
    "website": "http://www.senghouse.sg/",
    "phone": "9182 6388",
    "rating": 4.4,
    "userRatingCount": 844,
    "verificationStatus": "verified",
    "openNow": null
  },
  {
    "id": "ChIJg_Lj4bQZ2jERWFMZFIv2zzg",
    "name": "The Providore - VivoCity",
    "category": "cafe",
    "address": "1 HarbourFront Walk, #01-188, Singapore 098585",
    "lat": 1.2649477,
    "lng": 103.8211444,
    "website": "https://theprovidore.com/",
    "phone": "6221 7056",
    "rating": 4.6,
    "userRatingCount": 824,
    "verificationStatus": "verified",
    "openNow": null
  },
  {
    "id": "ChIJz_AlpkMZ2jERi845_PlNXrc",
    "name": "Earlybird",
    "category": "cafe",
    "address": "17 Jln Pinang, Singapore 199149",
    "lat": 1.3028952,
    "lng": 103.8581992,
    "website": "https://www.facebook.com/earlybirdcafesingapore",
    "phone": "9788 6856",
    "rating": 4.5,
    "userRatingCount": 824,
    "verificationStatus": "verified",
    "openNow": null
  },
  {
    "id": "ChIJ9WhnrQwY2jER-jYA2heV9Pw",
    "name": "Mel's Place Restaurant & Bar",
    "category": "cafe",
    "address": "2A Kuo Chuan Ave, Singapore 426897",
    "lat": 1.3075329999999998,
    "lng": 103.90788099999999,
    "website": "http://melsplace.com.sg/",
    "phone": "6440 3573",
    "rating": 4.2,
    "userRatingCount": 823,
    "verificationStatus": "verified",
    "openNow": null
  },
  {
    "id": "ChIJfcrDA48Z2jERo45o85-z2H8",
    "name": "BreakfastGrill - East Coast",
    "category": "cafe",
    "address": "380 E Coast Rd, Singapore 428986",
    "lat": 1.3086411,
    "lng": 103.9113464,
    "website": "https://www.breakfastgrillsg.com/",
    "phone": "8612 8807",
    "rating": 4.5,
    "userRatingCount": 815,
    "verificationStatus": "verified",
    "openNow": null
  },
  {
    "id": "ChIJRe5m0qUX2jERaF5thYhp2ds",
    "name": "Eleven Strands",
    "category": "cafe",
    "address": "66 Yio Chu Kang Rd, Singapore 545568",
    "lat": 1.3574947,
    "lng": 103.8755726,
    "website": "http://www.elevenstrands.sg/",
    "phone": "9487 1398",
    "rating": 4.2,
    "userRatingCount": 806,
    "verificationStatus": "verified",
    "openNow": null
  },
  {
    "id": "ChIJV-m34hY82jERTiaT7147egA",
    "name": "Chock Full Of Beans",
    "category": "cafe",
    "address": "4 Changi Village Rd, #01-2090, Singapore 500004",
    "lat": 1.3894362,
    "lng": 103.9873666,
    "website": "https://www.facebook.com/cfob.changi/",
    "phone": "8428 8203",
    "rating": 4.2,
    "userRatingCount": 787,
    "verificationStatus": "verified",
    "openNow": null
  },
  {
    "id": "ChIJQ9_41soX2jERSnkjDdP6bR4",
    "name": "Rise Bakehouse @ Potong Pasir",
    "category": "cafe",
    "address": "148 Potong Pasir Ave 1, #01-53, Singapore 350148",
    "lat": 1.3326694,
    "lng": 103.8680478,
    "website": "http://www.risebakehouse.sg/",
    "phone": "8928 9111",
    "rating": 4.7,
    "userRatingCount": 779,
    "verificationStatus": "verified",
    "openNow": null
  },
  {
    "id": "ChIJAchazzI92jERz9jSEMtC-f8",
    "name": "Fat Po",
    "category": "cafe",
    "address": "10 Tebing Ln, #01-05/06, Singapore 828836",
    "lat": 1.3931286999999999,
    "lng": 103.91725989999999,
    "website": "https://www.facebook.com/fatposg/",
    "phone": "6244 4505",
    "rating": 4.1,
    "userRatingCount": 770,
    "verificationStatus": "verified",
    "openNow": null
  },
  {
    "id": "ChIJeVaLQcoV2jERMuPmS4m2PX4",
    "name": "slow bakes",
    "category": "cafe",
    "address": "30A Yishun Central 1, Singapore 768796",
    "lat": 1.4263793,
    "lng": 103.8383611,
    "website": "https://www.realfoodgrocer.com/slow-bakes-menu",
    "rating": 4.2,
    "userRatingCount": 615,
    "verificationStatus": "verified",
    "openNow": null
  },
  {
    "id": "ChIJ62fG0iAX2jERC-fVgo2Q4gg",
    "name": "Lucky Cat Vegetarian/Vegan Cafe",
    "category": "cafe",
    "address": "35 Hougang Ave 3, #01-02, Singapore 538840",
    "lat": 1.364505,
    "lng": 103.89247429999999,
    "website": "https://www.instagram.com/luckycatsg/",
    "rating": 4.6,
    "userRatingCount": 586,
    "verificationStatus": "verified",
    "openNow": null
  },
  {
    "id": "ChIJv54-ECwZ2jERw8V-N3dPCEU",
    "name": "the RITUAL",
    "category": "cafe",
    "address": "383 Bukit Timah Rd, #01-09B, Singapore 259727",
    "lat": 1.3195389,
    "lng": 103.827332,
    "website": "http://www.theritual.co/",
    "phone": "6208 7496",
    "rating": 4.3,
    "userRatingCount": 549,
    "verificationStatus": "verified",
    "openNow": null
  },
  {
    "id": "ChIJNxLu-EAb2jER_a4Y4ahn8TU",
    "name": "Red Sparrow",
    "category": "cafe",
    "address": "11 Dempsey Rd, #01-18, 249673, Singapore 249673",
    "lat": 1.3040143,
    "lng": 103.8100743,
    "website": "https://www.facebook.com/sgredsparrow",
    "phone": "6776 6118",
    "rating": 4,
    "userRatingCount": 547,
    "verificationStatus": "verified",
    "openNow": null
  },
  {
    "id": "ChIJqTrZJ2IQ2jERQJyVWDGL0fM",
    "name": "The Signature Patisserie",
    "category": "cafe",
    "address": "21 Lor Kilat, #01-01, Singapore 598123",
    "lat": 1.3409415999999998,
    "lng": 103.7733245,
    "website": "http://www.thesignaturepatisserie.com/",
    "phone": "6463 0919",
    "rating": 4.6,
    "userRatingCount": 478,
    "verificationStatus": "verified",
    "openNow": null
  },
  {
    "id": "ChIJ2wqU5TYZ2jERzK_enyQbAro",
    "name": "June Coffee",
    "category": "cafe",
    "address": "49 E Coast Rd, Singapore 428768",
    "lat": 1.3049789,
    "lng": 103.90309710000001,
    "website": "http://www.junecoffeesg.com/",
    "rating": 4.2,
    "userRatingCount": 469,
    "verificationStatus": "verified",
    "openNow": null
  },
  {
    "id": "ChIJ8xUbpD0X2jER7-GZsNo-clo",
    "name": "COTTAGE by The Straits People Cafe (TSP Coffee)",
    "category": "cafe",
    "address": "1 Pemimpin Dr, #01-02, Singapore 576151",
    "lat": 1.3520021,
    "lng": 103.84295069999999,
    "phone": "8756 6724",
    "rating": 4.5,
    "userRatingCount": 411,
    "verificationStatus": "verified",
    "openNow": null
  },
  {
    "id": "ChIJwwAK0CYY2jERwMAtl272d2w",
    "name": "Nom Bistro",
    "category": "cafe",
    "address": "400 Paya Lebar Way, Level 1 MacPherson Community Club, Singapore 379131",
    "lat": 1.3235614999999998,
    "lng": 103.8845738,
    "website": "http://order.noothermeaning.com/",
    "phone": "6747 3839",
    "rating": 4.3,
    "userRatingCount": 334,
    "verificationStatus": "verified",
    "openNow": null
  },
  {
    "id": "ChIJ4aryd_oX2jER8wW0zUiUhPk",
    "name": "Monday Coffee Bar",
    "category": "cafe",
    "address": "421 Ang Mo Kio Ave 10, Singapore 560421",
    "lat": 1.3654625,
    "lng": 103.85293929999999,
    "website": "http://www.mondaycoffeebar.com/",
    "rating": 4.5,
    "userRatingCount": 283,
    "verificationStatus": "verified",
    "openNow": null
  },
  {
    "id": "ChIJUeVNB7EX2jERClDwUzLoBDs",
    "name": "Grillhood Mains",
    "category": "cafe",
    "address": "603 Ang Mo Kio Ave 5, #01-2661, Singapore 560603",
    "lat": 1.3800696,
    "lng": 103.835443,
    "phone": "6261 4166",
    "rating": 4.7,
    "userRatingCount": 258,
    "verificationStatus": "verified",
    "openNow": null
  },
  {
    "id": "ChIJ5VZx8asR2jERno-_G_Bt-vA",
    "name": "Better Days Cafe & Bar",
    "category": "cafe",
    "address": "144 Upper Bukit Timah Rd, #04-12A, Singapore 588177",
    "lat": 1.3423741,
    "lng": 103.77625929999999,
    "website": "https://www.betterdayssg.com/",
    "phone": "8806 0890",
    "rating": 4.8,
    "userRatingCount": 257,
    "verificationStatus": "verified",
    "openNow": null
  },
  {
    "id": "ChIJJZkK1ngb2jER9ReC0MzAubc",
    "name": "Baristart Coffee Singapore (Sentosa)",
    "category": "cafe",
    "address": "40 Siloso Bch Walk, Sentosa, Singapore 098996",
    "lat": 1.2540392999999999,
    "lng": 103.8146173,
    "website": "http://baristartcoffee.sg/",
    "phone": "6970 0631",
    "rating": 4.1,
    "userRatingCount": 256,
    "verificationStatus": "verified",
    "openNow": null
  },
  {
    "id": "ChIJJ9U_xH0T2jERmRl3LDQr7S0",
    "name": "Curry Café",
    "category": "cafe",
    "address": "Admiralty Link, #01-13 Curry Café, Singapore 750482",
    "lat": 1.455317,
    "lng": 103.815429,
    "website": "http://www.curry-cafe.com/",
    "phone": "8688 3369",
    "rating": 4.3,
    "userRatingCount": 252,
    "verificationStatus": "verified",
    "openNow": null
  },
  {
    "id": "ChIJtbyEvYMa2jERvd0ry4NL3A8",
    "name": "Baker & Cook - Sunset Way",
    "category": "cafe",
    "address": "41 Sunset Wy, #01-03 Clementi Arcade, Singapore 597071",
    "lat": 1.3235375999999999,
    "lng": 103.767539,
    "website": "http://www.bakerandcook.com/",
    "phone": "8835 6053",
    "rating": 4.1,
    "userRatingCount": 246,
    "verificationStatus": "verified",
    "openNow": null
  },
  {
    "id": "ChIJj0nBSQAj2jERnFvJxyNG7Vw",
    "name": "Tuck In",
    "category": "cafe",
    "address": "158 Bedok South Ave 3, #01-583, Singapore 460158",
    "lat": 1.318767,
    "lng": 103.94508049999999,
    "phone": "6816 5783",
    "rating": 4.7,
    "userRatingCount": 242,
    "verificationStatus": "verified",
    "openNow": null
  },
  {
    "id": "ChIJx7AtOZAR2jERkVCS-A8FIsE",
    "name": "Golf Spot Cafe & Bistro",
    "category": "cafe",
    "address": "Upper Seletar Reservoir, Mandai Rd Track 7, Singapore 779384",
    "lat": 1.4009112,
    "lng": 103.80908219999999,
    "phone": "8851 2435",
    "rating": 4.8,
    "userRatingCount": 239,
    "verificationStatus": "verified",
    "openNow": null
  },
  {
    "id": "ChIJa9e7cVwX2jERdWGeD0HI6NA",
    "name": "Plank Sourdough Pizza - Serangoon Garden",
    "category": "cafe",
    "address": "87 Serangoon Garden Wy, Singapore 555983",
    "lat": 1.3639843,
    "lng": 103.8648207,
    "website": "https://www.bakerandcook.com/planksourdoughpizza",
    "phone": "8588 6857",
    "rating": 4.2,
    "userRatingCount": 209,
    "verificationStatus": "verified",
    "openNow": null
  },
  {
    "id": "ChIJYwTdQ6cZ2jERAP2RvAfwPPE",
    "name": "Glass Roasters",
    "category": "cafe",
    "address": "60 Seng Poh Ln, Singapore 160060",
    "lat": 1.2844512,
    "lng": 103.83306069999999,
    "website": "http://www.glassroasters.com/",
    "rating": 4.5,
    "userRatingCount": 200,
    "verificationStatus": "verified",
    "openNow": null
  },
  {
    "id": "ChIJP8yqUh092jERRu73cQoWEkQ",
    "name": "Buddy Bistro & Bar",
    "category": "cafe",
    "address": "744 Bedok Reservoir Rd, #01-3043 Reservoir Village, Singapore 470744",
    "lat": 1.3379691,
    "lng": 103.9215114,
    "website": "https://www.facebook.com/sg.buddybistro/",
    "phone": "6241 5650",
    "rating": 4.7,
    "userRatingCount": 195,
    "verificationStatus": "verified",
    "openNow": null
  },
  {
    "id": "ChIJ_Wma4YQb2jERAthljNsxKqE",
    "name": "Wakamama Japanese Omakase (By Reservations Only)",
    "category": "cafe",
    "address": "218 Pasir Panjang Rd, #02-15 ICON @ Pasir Panjang, Singapore 118579",
    "lat": 1.2792617,
    "lng": 103.78591379999999,
    "website": "https://www.wakamama.sg/",
    "phone": "8877 1753",
    "rating": 4.8,
    "userRatingCount": 184,
    "verificationStatus": "verified",
    "openNow": null
  },
  {
    "id": "ChIJnw9Jsf8W2jERCztlYEI_j70",
    "name": "Happy Daze Bistro Cafe",
    "category": "cafe",
    "address": "11 Maju Ave, Singapore 556689",
    "lat": 1.3653332,
    "lng": 103.86550679999999,
    "phone": "8806 0487",
    "rating": 4.1,
    "userRatingCount": 164,
    "verificationStatus": "verified",
    "openNow": null
  },
  {
    "id": "ChIJi-7rpZUV2jER4b5UzIDP_nk",
    "name": "190°C Degrees Bakery",
    "category": "cafe",
    "address": "932 Yishun Central 1, #01-95, Singapore 760932",
    "lat": 1.4264615999999999,
    "lng": 103.8369781,
    "phone": "9221 8444",
    "rating": 4.5,
    "userRatingCount": 150,
    "verificationStatus": "verified",
    "openNow": null
  },
  {
    "id": "ChIJS2jBvNMb2jER9FULc9cZfZM",
    "name": "Monday Coffee Bar",
    "category": "cafe",
    "address": "209A Clementi Ave 6, #01-02 Clementi NorthArc, Singapore 121209",
    "lat": 1.3220832999999999,
    "lng": 103.7638219,
    "website": "https://mondaycoffeebar.com/",
    "rating": 4.3,
    "userRatingCount": 141,
    "verificationStatus": "verified",
    "openNow": null
  },
  {
    "id": "ChIJs2jS05wZ2jERRt7WWCDpUHU",
    "name": "Bee Hoe Coffee",
    "category": "cafe",
    "address": "55 Joo Chiat Pl, Singapore 427779",
    "lat": 1.3136781,
    "lng": 103.9010957,
    "phone": "9633 5074",
    "rating": 4.7,
    "userRatingCount": 140,
    "verificationStatus": "verified",
    "openNow": null
  },
  {
    "id": "ChIJ5dNfGKkZ2jERyeKXzLaMdC0",
    "name": "Commune Café",
    "category": "cafe",
    "address": "9 Raffles Blvd, #02-50, Millenia Walk, Singapore 039596",
    "lat": 1.2925361,
    "lng": 103.8598152,
    "website": "https://facebook.com/communecafe50/",
    "phone": "9129 1379",
    "rating": 4.2,
    "userRatingCount": 138,
    "verificationStatus": "verified",
    "openNow": null
  },
  {
    "id": "ChIJ9-R7d80Z2jERA2PywKkfb5A",
    "name": "Bettr Coffee @ Foundry",
    "category": "cafe",
    "address": "11 Prinsep Link, The Foundry, Singapore 187949",
    "lat": 1.3000639999999999,
    "lng": 103.850335,
    "website": "https://bettr.coffee/",
    "rating": 4.8,
    "userRatingCount": 133,
    "verificationStatus": "verified",
    "openNow": null
  },
  {
    "id": "ChIJ4YqL6IwZ2jERFjPVB3SQl4Y",
    "name": "Beastly Girls Sandwich Bar",
    "category": "cafe",
    "address": "11 E Coast Rd, #01-18, Singapore 428722",
    "lat": 1.3044802,
    "lng": 103.90212700000001,
    "website": "https://www.instagram.com/beastly.girls/",
    "phone": "9126 0290",
    "rating": 4.7,
    "userRatingCount": 125,
    "verificationStatus": "verified",
    "openNow": null
  },
  {
    "id": "ChIJO1T9mnEX2jERE54ZpT7E9hY",
    "name": "Bread Butter Bakehouse",
    "category": "cafe",
    "address": "7 Ang Mo Kio Street 66, #01-08 Flora Vista, Singapore 567708",
    "lat": 1.391544,
    "lng": 103.85037709999999,
    "website": "https://breadbutter.sg/",
    "phone": "8899 7279",
    "rating": 4.7,
    "userRatingCount": 124,
    "verificationStatus": "verified",
    "openNow": null
  },
  {
    "id": "ChIJ89HqylsX2jERYeqX4sSwB7E",
    "name": "The Paddock Bistro - Poolside & Outdoor Dining",
    "category": "cafe",
    "address": "80 Mount Pleasant Rd, Singapore 298334",
    "lat": 1.3323816,
    "lng": 103.8362631,
    "website": "https://missinglinkgroup.sg/the-paddock-bistro/",
    "phone": "9234 8934",
    "rating": 4.1,
    "userRatingCount": 107,
    "verificationStatus": "verified",
    "openNow": null
  },
  {
    "id": "ChIJcyu5cP4j2jERbTd6frhD34Y",
    "name": "ANATTA Restaurant",
    "category": "cafe",
    "address": "914 E Coast Rd, #01-02 The Domain, Singapore 459108",
    "lat": 1.3120273,
    "lng": 103.9244088,
    "website": "https://anatta.sg/our-brands/?fbclid=PARlRTSAMnb0FleHRuA2FlbQIxMQABp_ZX8jhc3_Skw1rkdgY761gj80-tU1c3kBQ_n9g0Alb4ju3hyyxzk4jBaGZx_aem_fUBHhrLWPmUrs2TJ8G0w5w",
    "phone": "9366 3934",
    "rating": 4.9,
    "userRatingCount": 102,
    "verificationStatus": "verified",
    "openNow": null
  },
  {
    "id": "ChIJvU2IFW0Z2jERqVQbONHOScg",
    "name": "Group Therapy Coffee - Cross Street Exchange",
    "category": "cafe",
    "address": "181 S Bridge Rd, #01-05 & #K1-04, Singapore 058743",
    "lat": 1.2837768,
    "lng": 103.84720709999999,
    "website": "http://www.gtcoffee.com/",
    "phone": "6222 2554",
    "rating": 4.2,
    "userRatingCount": 889,
    "verificationStatus": "verified",
    "openNow": null
  },
  {
    "id": "ChIJ6VzXLGEQ2jERXwVlpVrULtM",
    "name": "Cowpresso Coffee Roasters Singapore",
    "category": "cafe",
    "address": "21 Lor Kilat, #01-07, Singapore 598123",
    "lat": 1.3409543,
    "lng": 103.77298809999999,
    "website": "https://cowpressocoffee.sg/",
    "phone": "8550 8143",
    "rating": 4.6,
    "userRatingCount": 878,
    "verificationStatus": "verified",
    "openNow": null
  },
  {
    "id": "ChIJlyvzifMj2jERpKBq_QkdP0Q",
    "name": "High Tide Bistro and Bar",
    "category": "cafe",
    "address": "1390 ECP, PAssion WaVe @ East Coast, Singapore 468961",
    "lat": 1.3115115,
    "lng": 103.9524976,
    "phone": "9734 2649",
    "rating": 4.6,
    "userRatingCount": 875,
    "verificationStatus": "verified",
    "openNow": null
  },
  {
    "id": "ChIJYSrE03QZ2jERw0pU54AAQvs",
    "name": "BistrOne36 at Tyrwhitt",
    "category": "cafe",
    "address": "121 Tyrwhitt Rd, Singapore 207548",
    "lat": 1.3111728000000002,
    "lng": 103.85973129999999,
    "website": "https://bistrone36.co/",
    "phone": "6610 7229",
    "rating": 4.8,
    "userRatingCount": 859,
    "verificationStatus": "verified",
    "openNow": null
  },
  {
    "id": "ChIJ-RBMrsUZ2jER_mDRCpfHAy4",
    "name": "PÖONSTI/Old Hen Coffee (NUS)",
    "category": "cafe",
    "address": "11 Kent Ridge Dr, #01-02, Singapore 119244",
    "lat": 1.2931827999999999,
    "lng": 103.7736341,
    "website": "https://www.oldhencoffee.com/",
    "rating": 4.5,
    "userRatingCount": 749,
    "verificationStatus": "verified",
    "openNow": null
  },
  {
    "id": "ChIJWXP8oXAZ2jER55ml-GX1Mb4",
    "name": "Drips Bakery Cafe @ Tiong Bahru",
    "category": "cafe",
    "address": "82 Tiong Poh Rd, #01-05, Singapore 160082",
    "lat": 1.2835972,
    "lng": 103.83402079999999,
    "website": "http://www.drips.com.sg/",
    "phone": "6222 0400",
    "rating": 4,
    "userRatingCount": 720,
    "verificationStatus": "verified",
    "openNow": null
  },
  {
    "id": "ChIJxc_ad0YZ2jER8r7qDFPdLz4",
    "name": "Plain Vanilla Telok Ayer",
    "category": "cafe",
    "address": "134 Telok Ayer St, Singapore 068600",
    "lat": 1.2816949,
    "lng": 103.84805580000001,
    "website": "http://www.plainvanilla.com.sg/",
    "phone": "8299 0674",
    "rating": 4.3,
    "userRatingCount": 712,
    "verificationStatus": "verified",
    "openNow": null
  },
  {
    "id": "ChIJB9KJMW4X2jER61vdmVZ88E4",
    "name": "Trovato",
    "category": "cafe",
    "address": "26 Jln Selaseh, Singapore 808445",
    "lat": 1.3854752,
    "lng": 103.87278649999999,
    "website": "http://www.trovato.sg/",
    "phone": "8842 9826",
    "rating": 4.5,
    "userRatingCount": 692,
    "verificationStatus": "verified",
    "openNow": null
  },
  {
    "id": "ChIJo35kZcEb2jERA6HrbOWyZI4",
    "name": "OPIO Kitchen & Bar",
    "category": "cafe",
    "address": "991B Alexandra Rd, Singapore 119970",
    "lat": 1.2738095,
    "lng": 103.8033931,
    "website": "https://www.bluelotus.com.sg/opio-kitchen-bar",
    "phone": "9171 1390",
    "rating": 4.4,
    "userRatingCount": 678,
    "verificationStatus": "verified",
    "openNow": null
  },
  {
    "id": "ChIJ7Ym-4xYZ2jER4i7vqrVWrY0",
    "name": "6 Letter Coffee",
    "category": "cafe",
    "address": "259 Tanjong Katong Rd, Beng Tong Mansion, Singapore 437047",
    "lat": 1.3080163999999999,
    "lng": 103.89540009999999,
    "website": "https://www.6lettercoffee.sg/",
    "phone": "6285 0368",
    "rating": 4.3,
    "userRatingCount": 667,
    "verificationStatus": "verified",
    "openNow": null
  },
  {
    "id": "ChIJswRqCegZ2jER_p6Pj-eAyiU",
    "name": "Brauhaus Restaurant & Pub",
    "category": "cafe",
    "address": "101 Thomson Road, B1, #13/14 United Square, Singapore 307591",
    "lat": 1.3169435,
    "lng": 103.8440475,
    "website": "http://www.brauhaussg.com/",
    "phone": "6250 3116",
    "rating": 4.4,
    "userRatingCount": 651,
    "verificationStatus": "verified",
    "openNow": null
  },
  {
    "id": "ChIJeyqg-2Eb2jERRgQhcJB6SYA",
    "name": "Lucky Saigon Café",
    "category": "cafe",
    "address": "356 Tanglin Rd, Singapore 247674",
    "lat": 1.2945425,
    "lng": 103.8149579,
    "phone": "6556 8228",
    "rating": 4,
    "userRatingCount": 650,
    "verificationStatus": "verified",
    "openNow": null
  },
  {
    "id": "ChIJ3dARAokQ2jEROjDCkPI7fSw",
    "name": "Waffletown",
    "category": "cafe",
    "address": "1 W Coast Dr, #01-106 NEWest, Singapore 128020",
    "lat": 1.3170222999999999,
    "lng": 103.7572428,
    "website": "https://www.facebook.com/waffletownsg/",
    "phone": "8011 0032",
    "rating": 4.4,
    "userRatingCount": 636,
    "verificationStatus": "verified",
    "openNow": null
  },
  {
    "id": "ChIJa4YZJG8Z2jERg4a_sKwmYgI",
    "name": "Little Part 1 Cafe",
    "category": "cafe",
    "address": "54 Blair Rd, #01-01, Singapore 089954",
    "lat": 1.2759299,
    "lng": 103.8357315,
    "website": "http://www.littlepart1cafe.com/",
    "phone": "6909 8354",
    "rating": 4.6,
    "userRatingCount": 617,
    "verificationStatus": "verified",
    "openNow": null
  },
  {
    "id": "ChIJWQFsPb4Z2jERtooWGfFNJnQ",
    "name": "Neptune",
    "category": "cafe",
    "address": "237 E Coast Rd, Singapore 428930",
    "lat": 1.3078182,
    "lng": 103.90750369999999,
    "website": "http://theneptune.com.sg/",
    "phone": "6970 7305",
    "rating": 4,
    "userRatingCount": 609,
    "verificationStatus": "verified",
    "openNow": null
  },
  {
    "id": "ChIJ4_YN3TgY2jERX2aZ3ZsLds4",
    "name": "Sweet Garden Dining Cafe",
    "category": "cafe",
    "address": "32 Cassia Cres, #01-50, Singapore 390032",
    "lat": 1.3096799,
    "lng": 103.8838719,
    "website": "http://www.facebook.com/sweetgarden.sg",
    "phone": "9100 4286",
    "rating": 4.7,
    "userRatingCount": 600,
    "verificationStatus": "verified",
    "openNow": null
  },
  {
    "id": "ChIJ3Vc6OY092jERhObI1bZ_4Sk",
    "name": "Marie's Lapis Cafe",
    "category": "cafe",
    "address": "537 Bedok North Street 3, #01-575 Kaki Bukit Mall, Singapore 460537",
    "lat": 1.3318265,
    "lng": 103.92449769999999,
    "website": "http://www.marieslapiscafe.com/",
    "phone": "6970 8556",
    "rating": 4.7,
    "userRatingCount": 587,
    "verificationStatus": "verified",
    "openNow": null
  },
  {
    "id": "ChIJgU3MUqAX2jER8ytjKoY12Tw",
    "name": "Acoustics Coffee Bar Neil",
    "category": "cafe",
    "address": "61 Neil Rd, Singapore 088895",
    "lat": 1.2795196,
    "lng": 103.8423325,
    "website": "https://www.acousticscoffee.com/menus",
    "phone": "8023 9619",
    "rating": 4.4,
    "userRatingCount": 580,
    "verificationStatus": "verified",
    "openNow": null
  },
  {
    "id": "ChIJJZcNXMQZ2jER_Ebj0cKFx_M",
    "name": "Old Hen Kitchen",
    "category": "cafe",
    "address": "127 Owen Rd, Singapore 218931",
    "lat": 1.3140338,
    "lng": 103.8526624,
    "website": "https://www.oldhencoffee.com/kitchen",
    "phone": "6291 0632",
    "rating": 4.4,
    "userRatingCount": 572,
    "verificationStatus": "verified",
    "openNow": null
  },
  {
    "id": "ChIJtQeyXlob2jERUIVN4nR_r8g",
    "name": "Sin & Savage Bakehouse",
    "category": "cafe",
    "address": "169 Stirling Rd, #01-1153 Stirling View, Singapore 140169",
    "lat": 1.2904594999999999,
    "lng": 103.8031098,
    "website": "http://www.sinandsavage.com/",
    "rating": 4.7,
    "userRatingCount": 567,
    "verificationStatus": "verified",
    "openNow": null
  },
  {
    "id": "ChIJiRHA8REZ2jERYkJW23hR60E",
    "name": "Jimmy Monkey Cafe PLQ (G Floor - Park Place Residences)",
    "category": "cafe",
    "address": "2 Paya Lebar Rd, #01-10 Park Place Residences - next to playground, Singapore 409053",
    "lat": 1.3155782,
    "lng": 103.8926374,
    "website": "https://jimmymonkey.com/",
    "phone": "6920 4749",
    "rating": 4.1,
    "userRatingCount": 552,
    "verificationStatus": "verified",
    "openNow": null
  },
  {
    "id": "ChIJ2Qm6dAAX2jERmSNhj0uSxzA",
    "name": "Warm Up Cafe @ Grantral Mall Macpherson",
    "category": "cafe",
    "address": "601 MacPherson Road Grantral Mall, #01-37 Grantral Complex, Singapore 368242",
    "lat": 1.3333998,
    "lng": 103.88720090000001,
    "website": "https://www.instagram.com/warmupcafe_sg/",
    "phone": "8903 2232",
    "rating": 4.6,
    "userRatingCount": 538,
    "verificationStatus": "verified",
    "openNow": null
  },
  {
    "id": "ChIJ_x1iFZQT2jERmMylUcZtYes",
    "name": "Daruma Tavern",
    "category": "cafe",
    "address": "25 Springside Green, #01-14 The Brooks II, Singapore 786015",
    "lat": 1.4042238,
    "lng": 103.81900569999999,
    "website": "https://darumatavern.sg/",
    "phone": "9734 3484",
    "rating": 4.3,
    "userRatingCount": 517,
    "verificationStatus": "verified",
    "openNow": null
  },
  {
    "id": "ChIJT103P3wR2jER9eKoKmdeiY8",
    "name": "Yeast Side - Sourdough Pizza & Craft Beer (King Albert Park)",
    "category": "cafe",
    "address": "9 King Albert Prk, #01-09, Singapore 598332",
    "lat": 1.3369872999999999,
    "lng": 103.77905589999999,
    "website": "https://yeastside.sg/",
    "phone": "8891 0525",
    "rating": 4.5,
    "userRatingCount": 515,
    "verificationStatus": "verified",
    "openNow": null
  },
  {
    "id": "ChIJHYmZEBQZ2jERjY5Dp58BGhU",
    "name": "South Side Keppel - All Day Rosti and Brunch Cafe Singapore",
    "category": "cafe",
    "address": "1557 Keppel Rd, #01-04, Singapore 089066",
    "lat": 1.2731664999999999,
    "lng": 103.8403017,
    "website": "https://southside.sg/",
    "phone": "8886 9708",
    "rating": 4.4,
    "userRatingCount": 508,
    "verificationStatus": "verified",
    "openNow": null
  },
  {
    "id": "ChIJE5u0wHAZ2jERGgPcjCawHnM",
    "name": "Glyph Supply Co",
    "category": "cafe",
    "address": "1 Venture Ave, #02 - 04, Singapore 608521",
    "lat": 1.3317736999999998,
    "lng": 103.7449597,
    "website": "http://www.glyphsupply.co/",
    "rating": 4.3,
    "userRatingCount": 508,
    "verificationStatus": "verified",
    "openNow": null
  },
  {
    "id": "ChIJHayMAi8Z2jERZtTvM5OHT6k",
    "name": "SYIP (Luzerne)",
    "category": "cafe",
    "address": "72 Bendemeer Rd, #01-05, Singapore 339941",
    "lat": 1.3160296,
    "lng": 103.8628655,
    "website": "https://www.syipcafe.com.sg/",
    "phone": "8770 9079",
    "rating": 4.2,
    "userRatingCount": 507,
    "verificationStatus": "verified",
    "openNow": null
  },
  {
    "id": "ChIJGRb30_Qb2jERDhsB6xV90Hk",
    "name": "Simple Café 簡單。",
    "category": "cafe",
    "address": "1 W Coast Dr, #01-92, Singapore 128020",
    "lat": 1.3165141999999999,
    "lng": 103.75766290000001,
    "website": "http://www.simplecafe.sg/",
    "phone": "9618 1572",
    "rating": 4.5,
    "userRatingCount": 493,
    "verificationStatus": "verified",
    "openNow": null
  },
  {
    "id": "ChIJ0UNzVcUX2jERczU6exaNTSw",
    "name": "Infusion Roastery Cafe",
    "category": "cafe",
    "address": "10A-E, Yio Chu Kang Rd, ICB SHOPPING CENTER, Singapore 545524",
    "lat": 1.3545874,
    "lng": 103.8776779,
    "phone": "9877 6533",
    "rating": 4.2,
    "userRatingCount": 491,
    "verificationStatus": "verified",
    "openNow": null
  },
  {
    "id": "ChIJ2aQnVRY82jERUyIeg6PS-Z4",
    "name": "Jacob's Cafe",
    "category": "cafe",
    "address": "5 Changi Village Rd, #01-2049, Singapore 500005",
    "lat": 1.3893731999999999,
    "lng": 103.9867623,
    "website": "https://www.jacobscafe.com.sg/",
    "phone": "6542 7500",
    "rating": 4.4,
    "userRatingCount": 480,
    "verificationStatus": "verified",
    "openNow": null
  },
  {
    "id": "ChIJgyf0TwIX2jERBnu2-O1wIVU",
    "name": "alkove bistro",
    "category": "cafe",
    "address": "2 Kovan Rd, #01-10 Simon Plaza, Singapore 548008",
    "lat": 1.3620805999999999,
    "lng": 103.8852713,
    "website": "https://www.alkove.sg/",
    "phone": "6858 5729",
    "rating": 4.1,
    "userRatingCount": 473,
    "verificationStatus": "verified",
    "openNow": null
  },
  {
    "id": "ChIJoQXoZi8j2jERURf2FwJoUVQ",
    "name": "Tiong Bahru Bakery",
    "category": "cafe",
    "address": "77 Upper E Coast Rd, #01-01 77@East Coast, Singapore 455218",
    "lat": 1.3132681,
    "lng": 103.927391,
    "website": "https://www.tiongbahrubakery.com/",
    "phone": "6877 4891",
    "rating": 4,
    "userRatingCount": 451,
    "verificationStatus": "verified",
    "openNow": null
  },
  {
    "id": "ChIJ3wRvXXIj2jERl7S_QvJHAs0",
    "name": "6 Letter Brunch",
    "category": "cafe",
    "address": "103 Frankel Ave, Singapore 458225",
    "lat": 1.3145506999999998,
    "lng": 103.9194449,
    "website": "https://www.6lettercoffee.sg/6letterbrunch",
    "phone": "8366 0168",
    "rating": 4.4,
    "userRatingCount": 449,
    "verificationStatus": "verified",
    "openNow": null
  },
  {
    "id": "ChIJ6ezLFuUZ2jERPQ4NOq9Yel0",
    "name": "PRAIRIE by Craftsmen (River Valley)",
    "category": "cafe",
    "address": "486 River Valley Rd, Singapore 248370",
    "lat": 1.293426,
    "lng": 103.82612089999999,
    "website": "https://prairie.sg/",
    "phone": "6966 2480",
    "rating": 4.4,
    "userRatingCount": 446,
    "verificationStatus": "verified",
    "openNow": null
  },
  {
    "id": "ChIJX9pR0bUe2jERJRzgcJSiH0M",
    "name": "Miska Cafe",
    "category": "cafe",
    "address": "31 Ocean Way, #01-07, Singapore 098375",
    "lat": 1.2472309,
    "lng": 103.8422985,
    "website": "http://www.miskacafe.com/",
    "phone": "6339 0903",
    "rating": 4.1,
    "userRatingCount": 444,
    "verificationStatus": "verified",
    "openNow": null
  },
  {
    "id": "ChIJpTAW1KUQ2jEREMulvSWMB0o",
    "name": "Baker & Cook",
    "category": "cafe",
    "address": "77 Hillcrest Rd, Singapore 288951",
    "lat": 1.3315651,
    "lng": 103.8075586,
    "website": "http://www.bakerandcook.com/",
    "phone": "8810 6073",
    "rating": 4.3,
    "userRatingCount": 425,
    "verificationStatus": "verified",
    "openNow": null
  },
  {
    "id": "ChIJnS_SoPw92jER_-WWa0rvAkQ",
    "name": "Lola's",
    "category": "cafe",
    "address": "4 Tampines Central 5, # 01 - 50 Tampines Mall, Singapore 529510",
    "lat": 1.3520017,
    "lng": 103.94433269999999,
    "website": "https://www.lolascafe.com.sg/",
    "phone": "8891 9584",
    "rating": 4.2,
    "userRatingCount": 415,
    "verificationStatus": "verified",
    "openNow": null
  },
  {
    "id": "ChIJAYFXlgYa2jERzXR4KdyTEM4",
    "name": "Caffè Affogato",
    "category": "cafe",
    "address": "1 Vista Exchange Grn, #01-02 The Star Vista, Singapore 138617",
    "lat": 1.3070419,
    "lng": 103.78782319999999,
    "rating": 4.1,
    "userRatingCount": 403,
    "verificationStatus": "verified",
    "openNow": null
  },
  {
    "id": "ChIJVdCmxpgb2jERFao4qFxsSIU",
    "name": "Alchemist The Mill",
    "category": "cafe",
    "address": "5 Jln Kilang, #02-02 The Mill, Singapore 159405",
    "lat": 1.2852957,
    "lng": 103.8097234,
    "website": "http://www.alchemist.com.sg/",
    "rating": 4.6,
    "userRatingCount": 399,
    "verificationStatus": "verified",
    "openNow": null
  },
  {
    "id": "ChIJqbeUdtAV2jERMvc9ytBe7-s",
    "name": "Southwest@Punggol Restaurant and Bar",
    "category": "cafe",
    "address": "500 New Punggol Rd, #01-11/12 The Punggol Settlement, Singapore 828617",
    "lat": 1.4204352999999998,
    "lng": 103.912571,
    "website": "https://southwestpunggol.wixsite.com/southwestpunggol",
    "phone": "6244 3988",
    "rating": 4.2,
    "userRatingCount": 392,
    "verificationStatus": "verified",
    "openNow": null
  },
  {
    "id": "ChIJ7cXuxpYZ2jERPmwg_xdxMsE",
    "name": "Hellu Coffee",
    "category": "cafe",
    "address": "137 Amoy St, #01-05 Far East Square, Singapore 049965",
    "lat": 1.283445,
    "lng": 103.8482602,
    "rating": 4.4,
    "userRatingCount": 379,
    "verificationStatus": "verified",
    "openNow": null
  },
  {
    "id": "ChIJozAd4eEb2jERkA7-7FffCxY",
    "name": "Le Faubourg",
    "category": "cafe",
    "address": "2 Gunner Lane #01-02 Mess Hall Block 17, opp The Barracks Hotel, Singapore 099567",
    "lat": 1.2526575,
    "lng": 103.82087489999999,
    "website": "https://le-faubourg-sentosa.com/",
    "phone": "6677 7128",
    "rating": 4.5,
    "userRatingCount": 370,
    "verificationStatus": "verified",
    "openNow": null
  },
  {
    "id": "ChIJpWtGS5kZ2jEROZL3L2Efcr0",
    "name": "Dearborn Breakfast Club",
    "category": "cafe",
    "address": "46 Kim Yam Rd, #03-04, Singapore 239351",
    "lat": 1.2923658,
    "lng": 103.8388303,
    "website": "https://www.dearborn.sg/",
    "rating": 4.4,
    "userRatingCount": 366,
    "verificationStatus": "verified",
    "openNow": null
  },
  {
    "id": "ChIJg2zSn78X2jERS5SxxB_-_2s",
    "name": "Fuel X",
    "category": "cafe",
    "address": "2 Tai Thong Cres, #01-06 The Venue Shoppes, Singapore 347836",
    "lat": 1.3284113,
    "lng": 103.8694155,
    "website": "http://fuelx.sg/",
    "phone": "6246 7266",
    "rating": 4.4,
    "userRatingCount": 361,
    "verificationStatus": "verified",
    "openNow": null
  },
  {
    "id": "ChIJ4TBT19gb2jERO-BHtVG5Qz0",
    "name": "Bailey And Whiskey",
    "category": "cafe",
    "address": "DEPOT HEIGHTS, 108 Depot Rd, #01-30 SHOPPING CENTRE, Singapore 100108",
    "lat": 1.28119,
    "lng": 103.81082409999999,
    "phone": "9325 6563",
    "rating": 4.6,
    "userRatingCount": 358,
    "verificationStatus": "verified",
    "openNow": null
  },
  {
    "id": "ChIJpSL1XikV2jERmSJjYvYjlS4",
    "name": "Creamier Handcrafted Ice Cream and Coffee (Punggol Northshore)",
    "category": "cafe",
    "address": "418 Northshore Dr, #01-04/05 Northshore Plaza II, Singapore 820418",
    "lat": 1.4176495,
    "lng": 103.9013264,
    "website": "http://www.creamier.com.sg/",
    "rating": 4.3,
    "userRatingCount": 354,
    "verificationStatus": "verified",
    "openNow": null
  },
  {
    "id": "ChIJ901uvy4b2jERvr2IF6ByLcc",
    "name": "Oasis Bistro & Cafe",
    "category": "cafe",
    "address": "2 Kung Chong Rd, #04-01, Singapore 159140",
    "lat": 1.2898756999999998,
    "lng": 103.81295639999999,
    "website": "http://oasis.tbakeco.com/",
    "phone": "8058 2289",
    "rating": 4.7,
    "userRatingCount": 352,
    "verificationStatus": "verified",
    "openNow": null
  },
  {
    "id": "ChIJrTOu79wZ2jERM-9W5AAnrKA",
    "name": "Plain Vanilla East Coast",
    "category": "cafe",
    "address": "199 E Coast Rd, Singapore 428902",
    "lat": 1.307289,
    "lng": 103.9065126,
    "website": "https://plainvanilla.com.sg/",
    "phone": "9642 8100",
    "rating": 4,
    "userRatingCount": 352,
    "verificationStatus": "verified",
    "openNow": null
  },
  {
    "id": "ChIJGxHDb8sX2jERkstpXwMGbQk",
    "name": "Villa Creamery | Gelato, Waffles, Coffee & Matcha",
    "category": "cafe",
    "address": "128 Ang Mo Kio Ave 3, #01-1867, Singapore 560128",
    "lat": 1.3707441,
    "lng": 103.8440791,
    "phone": "9622 6637",
    "rating": 4.8,
    "userRatingCount": 332,
    "verificationStatus": "verified",
    "openNow": null
  },
  {
    "id": "ChIJHwT_cRAX2jERH0o5ukJ2T_o",
    "name": "Marymount Bakehouse Singapore",
    "category": "cafe",
    "address": "421 Race Course Rd, Singapore 218668",
    "lat": 1.3158832,
    "lng": 103.857507,
    "website": "https://www.instagram.com/marymount_bakehousesg/",
    "phone": "9183 3185",
    "rating": 4.4,
    "userRatingCount": 330,
    "verificationStatus": "verified",
    "openNow": null
  },
  {
    "id": "ChIJ89Dk7akX2jERmOVdAhU0JcY",
    "name": "Into The Woods Cafe",
    "category": "cafe",
    "address": "26 Jln Kelulut, Singapore 809043",
    "lat": 1.3833824,
    "lng": 103.87558419999999,
    "website": "https://www.facebook.com/p/i2-The-Woods-Cafe-100023430863884/",
    "phone": "6996 7601",
    "rating": 4.2,
    "userRatingCount": 325,
    "verificationStatus": "verified",
    "openNow": null
  },
  {
    "id": "ChIJDVkQ0IoV2jERexXSQaGhjZE",
    "name": "Izakaya 95",
    "category": "cafe",
    "address": "500 New Punggol Rd, #02-05 The Punggol Settlement, Singapore 828617",
    "lat": 1.4209053999999999,
    "lng": 103.912244,
    "website": "http://www.izakaya95.com/",
    "phone": "6384 1132",
    "rating": 4.1,
    "userRatingCount": 323,
    "verificationStatus": "verified",
    "openNow": null
  },
  {
    "id": "ChIJcTT1V7U92jERxJReTFDl3ek",
    "name": "Charlie's Corner",
    "category": "cafe",
    "address": "2 Changi Village Rd, #01-70, Singapore 500002",
    "lat": 1.3890574,
    "lng": 103.9884903,
    "website": "https://www.facebook.com/charliescorner.sg/",
    "phone": "6543 1754",
    "rating": 4.4,
    "userRatingCount": 320,
    "verificationStatus": "verified",
    "openNow": null
  },
  {
    "id": "ChIJB0Eqnw892jERCd1uHBrUFuI",
    "name": "Heartland by Enjoy",
    "category": "cafe",
    "address": "481 Tampines Street 44, #01-267, Singapore 520481",
    "lat": 1.3617321999999998,
    "lng": 103.9531956,
    "website": "http://www.enjoyeating.sg/",
    "phone": "8776 6757",
    "rating": 4.3,
    "userRatingCount": 317,
    "verificationStatus": "verified",
    "openNow": null
  },
  {
    "id": "ChIJ8x3C5EMa2jERbYQrehIx42o",
    "name": "The Lawn Cafe",
    "category": "cafe",
    "address": "31 Biopolis Wy, #01-07 Nanos, Singapore 138669",
    "lat": 1.3043649,
    "lng": 103.79236499999999,
    "website": "https://www.thelawn.com.sg/",
    "phone": "6774 5737",
    "rating": 4.3,
    "userRatingCount": 311,
    "verificationStatus": "verified",
    "openNow": null
  },
  {
    "id": "ChIJfUyARtIZ2jERCPS5DyTXLDs",
    "name": "Otter & Pebbles",
    "category": "cafe",
    "address": "8, Sinaran drive #01-05/07, Outside of Oasia Hotel, First floor corner unit, Singapore 307470",
    "lat": 1.3202264,
    "lng": 103.84496779999999,
    "website": "https://www.instagram.com/otterpebbles",
    "phone": "8690 4390",
    "rating": 4.6,
    "userRatingCount": 310,
    "verificationStatus": "verified",
    "openNow": null
  },
  {
    "id": "ChIJh7PuufA92jERqGvX9WZV9cY",
    "name": "Hundred Acre Creamery (Tampines) | Crafted Gelato, Waffles and Desserts",
    "category": "cafe",
    "address": "Block 824 Tampines Street 81, #01-24, Singapore 520824",
    "lat": 1.3490379,
    "lng": 103.9325928,
    "website": "http://hundredacre.sg/",
    "phone": "9117 1594",
    "rating": 4.7,
    "userRatingCount": 308,
    "verificationStatus": "verified",
    "openNow": null
  },
  {
    "id": "ChIJR7uT4K8X2jERl5TKyLx7L0E",
    "name": "Grapevine Cafe Bar & Restaurant",
    "category": "cafe",
    "address": "Upper Serangoon Rd, #787, Singapore 534655",
    "lat": 1.355462,
    "lng": 103.8793532,
    "website": "https://www.facebook.com/grapevine787/",
    "phone": "9239 0236",
    "rating": 4.1,
    "userRatingCount": 308,
    "verificationStatus": "verified",
    "openNow": null
  },
  {
    "id": "ChIJ7VSchNob2jERSYAj1taTBMs",
    "name": "Hello Arigato Bukit Timah",
    "category": "cafe",
    "address": "551 Bukit Timah Rd, Singapore 269692",
    "lat": 1.3229704,
    "lng": 103.81196899999999,
    "website": "https://helloarigato.com/",
    "phone": "8512 1355",
    "rating": 4.3,
    "userRatingCount": 305,
    "verificationStatus": "verified",
    "openNow": null
  },
  {
    "id": "ChIJ28UsMxMZ2jERCnmsra9y_gY",
    "name": "Bill’s Brew Cafe (BBC)",
    "category": "cafe",
    "address": "8 Bukit Pasoh Rd, Singapore 089822",
    "lat": 1.2788199999999998,
    "lng": 103.84097039999999,
    "phone": "8138 7957",
    "rating": 4.6,
    "userRatingCount": 298,
    "verificationStatus": "verified",
    "openNow": null
  },
  {
    "id": "ChIJ0RN82tob2jERYx53iKlP50E",
    "name": "Common Man Coffee Roasters - Alexandra Road",
    "category": "cafe",
    "address": "368 Alexandra Rd, #01-01, Singapore 159952",
    "lat": 1.2889716999999998,
    "lng": 103.80564179999999,
    "website": "https://commonmancoffeeroasters.com//?utm_source=google&utm_medium=organic&utm_campaign=gmb_alexandra",
    "phone": "6877 4872",
    "rating": 4.1,
    "userRatingCount": 292,
    "verificationStatus": "verified",
    "openNow": null
  },
  {
    "id": "ChIJf375q0492jER2800L8RwyfQ",
    "name": "Whiskdom Cafe Bedok (Pari Burong)",
    "category": "cafe",
    "address": "30 Jln Pari Burong, Singapore 488696",
    "lat": 1.3337181999999999,
    "lng": 103.948844,
    "website": "https://whiskdom.com/",
    "rating": 4.7,
    "userRatingCount": 290,
    "verificationStatus": "verified",
    "openNow": null
  },
  {
    "id": "ChIJrwngA7kZ2jER1DzhGH_vyeY",
    "name": "The Countryside Café",
    "category": "cafe",
    "address": "71 Dunlop St, Singapore 209399",
    "lat": 1.3050001,
    "lng": 103.8534494,
    "website": "https://www.thecountrysidecafe.sg/",
    "phone": "6292 0071",
    "rating": 4.3,
    "userRatingCount": 242,
    "verificationStatus": "verified",
    "openNow": null
  },
  {
    "id": "ChIJ_yDGU34b2jER_K4kDj8Rgoo",
    "name": "Blue Balls Bike Cafe",
    "category": "cafe",
    "address": "44 Pasir Panjang Rd, Singapore 118504",
    "lat": 1.2751876,
    "lng": 103.7943112,
    "website": "https://www.blueballs.sg/",
    "phone": "8499 8691",
    "rating": 4.4,
    "userRatingCount": 238,
    "verificationStatus": "verified",
    "openNow": null
  },
  {
    "id": "ChIJeXS7If8R2jER0npUrSkPvSQ",
    "name": "Bacaro",
    "category": "cafe",
    "address": "2 Greenwood Ave, Singapore 289189",
    "lat": 1.3313765,
    "lng": 103.8073419,
    "website": "http://www.bacaro.sg/",
    "phone": "8030 1224",
    "rating": 4.6,
    "userRatingCount": 237,
    "verificationStatus": "verified",
    "openNow": null
  },
  {
    "id": "ChIJQ1M44roZ2jERd0L8kkbW0Bg",
    "name": "Kōhī Roastery & Coffee Bar",
    "category": "cafe",
    "address": "432 Joo Chiat Rd, Singapore 427647",
    "lat": 1.3068651999999998,
    "lng": 103.9041127,
    "website": "http://www.kohi-roastery.com/",
    "phone": "8027 9991",
    "rating": 4,
    "userRatingCount": 235,
    "verificationStatus": "verified",
    "openNow": null
  },
  {
    "id": "ChIJpSnNNXgZ2jERuw0tzcjzThA",
    "name": "Acoustics Coffee Bar Owen",
    "category": "cafe",
    "address": "2 Owen Rd, #01-02, Singapore 218842",
    "lat": 1.3117237,
    "lng": 103.85499349999999,
    "website": "http://www.acousticscoffee.com/",
    "phone": "8023 9619",
    "rating": 4.4,
    "userRatingCount": 234,
    "verificationStatus": "verified",
    "openNow": null
  },
  {
    "id": "ChIJeX0wduQZ2jERgnxKKzPvVFs",
    "name": "Ai Cafe Singapore - Best Cafe Singapore",
    "category": "cafe",
    "address": "74 Horne Rd, Singapore 209076",
    "lat": 1.3105978999999999,
    "lng": 103.860806,
    "website": "https://cafeai.com.sg/",
    "phone": "9090 5172",
    "rating": 4.2,
    "userRatingCount": 233,
    "verificationStatus": "verified",
    "openNow": null
  },
  {
    "id": "ChIJq8udzWwb2jERsfjM_348beE",
    "name": "Rookie's Coffee Shop",
    "category": "cafe",
    "address": "123 Bukit Merah Lane 1, #01-112, Singapore 150123",
    "lat": 1.2861681,
    "lng": 103.80362889999999,
    "website": "http://rookiescoffee.com/",
    "rating": 4.8,
    "userRatingCount": 229,
    "verificationStatus": "verified",
    "openNow": null
  },
  {
    "id": "ChIJ0Xj8DTYX2jERSy05AUiHLM4",
    "name": "CHEEKY CUPPAS",
    "category": "cafe",
    "address": "24 Sin Ming Rd, #01-47A, Singapore 570024",
    "lat": 1.3550282999999999,
    "lng": 103.83615979999999,
    "website": "https://www.instagram.com/cheeky.cuppas/",
    "phone": "0481 974 568",
    "rating": 4.4,
    "userRatingCount": 228,
    "verificationStatus": "verified",
    "openNow": null
  },
  {
    "id": "ChIJ7-hdwKAX2jER7JxFfMkS6g0",
    "name": "Balance Coffee",
    "category": "cafe",
    "address": "453 Balestier Rd, #01-04, Singapore 329829",
    "lat": 1.3260861,
    "lng": 103.84820979999999,
    "website": "https://www.facebook.com/GeishaSpecialtySG",
    "rating": 4.3,
    "userRatingCount": 227,
    "verificationStatus": "verified",
    "openNow": null
  },
  {
    "id": "ChIJ_8M8XRob2jERNlp5OHUVWRQ",
    "name": "Benches Cafe",
    "category": "cafe",
    "address": "93A Clementi Rd, Singapore 129781",
    "lat": 1.2997675,
    "lng": 103.7681338,
    "rating": 4.8,
    "userRatingCount": 222,
    "verificationStatus": "verified",
    "openNow": null
  },
  {
    "id": "ChIJ-w8bFyoZ2jER0W4Ap3368cA",
    "name": "Catopia Singapore: Art Jamming x Retail x Cat Hotel",
    "category": "cafe",
    "address": "46 Dunlop St, #02-00, Singapore 209375",
    "lat": 1.3049321,
    "lng": 103.8537142,
    "phone": "8907 0666",
    "rating": 4.2,
    "userRatingCount": 217,
    "verificationStatus": "verified",
    "openNow": null
  },
  {
    "id": "ChIJeeEOXbkb2jER4zp_VatKeGs",
    "name": "Glass Roasters",
    "category": "cafe",
    "address": "108 Faber Dr, Singapore 129418",
    "lat": 1.3204871,
    "lng": 103.7564609,
    "website": "http://www.glassroasters.com/",
    "rating": 4.4,
    "userRatingCount": 216,
    "verificationStatus": "verified",
    "openNow": null
  },
  {
    "id": "ChIJhYaidrkZ2jERJnhsv4xDXAs",
    "name": "Hello Arigato Everton Park",
    "category": "cafe",
    "address": "4 Everton Prk, #01-42, Singapore 080004",
    "lat": 1.2768625,
    "lng": 103.8400932,
    "website": "http://helloarigato.com/",
    "phone": "8308 0103",
    "rating": 4.4,
    "userRatingCount": 213,
    "verificationStatus": "verified",
    "openNow": null
  },
  {
    "id": "ChIJGw3bRAAR2jERkzqDNGH43yU",
    "name": "Ice Cream Man & Friends The Garden Cafe",
    "category": "cafe",
    "address": "60 Yuan Ching Rd, #01-01 Sunken Garden Lake Garden, Singapore 619672",
    "lat": 1.3353690999999999,
    "lng": 103.7308485,
    "rating": 4.8,
    "userRatingCount": 208,
    "verificationStatus": "verified",
    "openNow": null
  },
  {
    "id": "ChIJBWX2EQAV2jERHh_KdsLrLFg",
    "name": "Nayana+ Kpop Cafe & Restaurant",
    "category": "cafe",
    "address": "88 Punggol Way, #02-115 Punggol Coast Mall, Singapore 829913",
    "lat": 1.4155822,
    "lng": 103.91047669999999,
    "website": "https://www.nayanafood.com/",
    "phone": "9323 4585",
    "rating": 4.5,
    "userRatingCount": 201,
    "verificationStatus": "verified",
    "openNow": null
  },
  {
    "id": "ChIJy14o_-sX2jERC4Hm6MVlgAQ",
    "name": "OLLA Coffee (The Woodleigh Mall)",
    "category": "cafe",
    "address": "11 Bidadari Park Dr, #01-55 Facing Outside next to Bidadari community club, Singapore 367803",
    "lat": 1.3393548,
    "lng": 103.87207219999999,
    "website": "http://www.ollacoffee.com/",
    "rating": 4.3,
    "userRatingCount": 198,
    "verificationStatus": "verified",
    "openNow": null
  },
  {
    "id": "ChIJt-l_PgAb2jERDFeQjgoQ9ro",
    "name": "CAFFE BEVIAMO - Holland Village",
    "category": "cafe",
    "address": "One, 7 Holland Vlg Wy, #01-29/30, Singapore 275748",
    "lat": 1.3113203999999998,
    "lng": 103.7941899,
    "website": "https://caffebeviamo.com.sg/",
    "phone": "6517 9385",
    "rating": 4.2,
    "userRatingCount": 197,
    "verificationStatus": "verified",
    "openNow": null
  },
  {
    "id": "ChIJh4iqxMMb2jERPw3nBbiEY_g",
    "name": "Baker & Cook - South Buona Vista",
    "category": "cafe",
    "address": "38 South Buona Vista Rd, Singapore 118164",
    "lat": 1.2807924,
    "lng": 103.78705629999999,
    "website": "http://www.bakerandcook.com/",
    "phone": "8847 2435",
    "rating": 4.2,
    "userRatingCount": 197,
    "verificationStatus": "verified",
    "openNow": null
  },
  {
    "id": "ChIJwRRaj8MX2jERPk2PUTBv3_0",
    "name": "After Hours Gelato (Bishan)",
    "category": "cafe",
    "address": "150A Bishan St.11, #01-179, Singapore 571150",
    "lat": 1.3445399999999998,
    "lng": 103.8559166,
    "website": "https://www.instagram.com/afterhoursgelato/",
    "phone": "8092 7562",
    "rating": 4,
    "userRatingCount": 194,
    "verificationStatus": "verified",
    "openNow": null
  },
  {
    "id": "ChIJsd_IuI8f2jER_5PfLUtb384",
    "name": "Common Man Coffee Roasters - Quayside Isle",
    "category": "cafe",
    "address": "31 Ocean Way, #01-09, Singapore 098375",
    "lat": 1.2471056,
    "lng": 103.8422382,
    "website": "https://commonmancoffeeroasters.com/?utm_source=google&utm_medium=organic&utm_campaign=gmb_quayside_isle",
    "phone": "6877 4892",
    "rating": 4.5,
    "userRatingCount": 193,
    "verificationStatus": "verified",
    "openNow": null
  },
  {
    "id": "ChIJMV0q6F8Z2jERy9XNr391_jk",
    "name": "Marlow's Deli Joo Chiat",
    "category": "cafe",
    "address": "162 Joo Chiat Rd, #01-02, Singapore 427437",
    "lat": 1.3129191,
    "lng": 103.8997065,
    "website": "http://www.instagram.com/woolysbagels",
    "rating": 4.5,
    "userRatingCount": 190,
    "verificationStatus": "verified",
    "openNow": null
  },
  {
    "id": "ChIJHf7pJQAZ2jERAiyDdXnn9mw",
    "name": "RUSTICA Singapore",
    "category": "cafe",
    "address": "462 Crawford Ln, #01-65, Singapore 190462",
    "lat": 1.3046233999999999,
    "lng": 103.86070869999999,
    "website": "https://social.quandoo.com/en/groups/RUSTICA%20Singapore",
    "phone": "9030 8803",
    "rating": 4.7,
    "userRatingCount": 189,
    "verificationStatus": "verified",
    "openNow": null
  },
  {
    "id": "ChIJN4Y-0DUZ2jER_WIyfmcV_Z0",
    "name": "Lazy Sloth & Drunken Sloth",
    "category": "cafe",
    "address": "41 E Coast Rd, Singapore 428761",
    "lat": 1.304878,
    "lng": 103.902996,
    "phone": "6241 3933",
    "rating": 4.7,
    "userRatingCount": 187,
    "verificationStatus": "verified",
    "openNow": null
  },
  {
    "id": "ChIJ8Ye4_Z8b2jERtgHTeOD_xnw",
    "name": "Cata Coffee",
    "category": "cafe",
    "address": "56 Joo Chiat Pl, Singapore 427780",
    "lat": 1.3134256,
    "lng": 103.901628,
    "website": "http://catacoffee.com/",
    "rating": 4.7,
    "userRatingCount": 187,
    "verificationStatus": "verified",
    "openNow": null
  },
  {
    "id": "ChIJT7d_bwA92jERg_Lmr124baw",
    "name": "Breakthrough Café",
    "category": "cafe",
    "address": "1 Changi Village Rd, #2000 2002, Singapore 500001",
    "lat": 1.3877397999999999,
    "lng": 103.98764059999999,
    "website": "https://www.breakthroughmissions.org.sg/",
    "phone": "6533 5977",
    "rating": 4.9,
    "userRatingCount": 186,
    "verificationStatus": "verified",
    "openNow": null
  },
  {
    "id": "ChIJk9o2T_I92jER8PI7BDdLI3g",
    "name": "Ciclo e Caffè (Changi Village)",
    "category": "cafe",
    "address": "1 Changi Village Rd, #01-2052, Singapore 500001",
    "lat": 1.3887022999999998,
    "lng": 103.9884374,
    "website": "http://www.ciclo-e-caffe.com/",
    "phone": "6208 8999",
    "rating": 4.9,
    "userRatingCount": 184,
    "verificationStatus": "verified",
    "openNow": null
  },
  {
    "id": "ChIJmWNd0f4R2jERpGkBJxWICwg",
    "name": "The M Plot Cafe",
    "category": "cafe",
    "address": "9 King Albert Prk, #01-05, Singapore 598332",
    "lat": 1.3368811,
    "lng": 103.77894859999999,
    "website": "https://www.themplot.com/",
    "phone": "6223 1986",
    "rating": 4.5,
    "userRatingCount": 184,
    "verificationStatus": "verified",
    "openNow": null
  },
  {
    "id": "ChIJ6cVTvIMa2jERoTdx0Yl90Ao",
    "name": "Cafe Sunset Railway",
    "category": "cafe",
    "address": "41 Sunset Wy, Singapore 597071",
    "lat": 1.3236255,
    "lng": 103.76750829999999,
    "website": "https://www.facebook.com/Sunset-Railway-Cafe-772589206202887/",
    "phone": "6463 0069",
    "rating": 4.3,
    "userRatingCount": 181,
    "verificationStatus": "verified",
    "openNow": null
  },
  {
    "id": "ChIJBRwJ-hkj2jERQjAzfUJVaX4",
    "name": "Cafe de Swan",
    "category": "cafe",
    "address": "29 Swan Lake Ave, Singapore 455718",
    "lat": 1.3216394999999999,
    "lng": 103.9239387,
    "website": "https://cafedeswan.sg/",
    "phone": "8749 9929",
    "rating": 4.8,
    "userRatingCount": 179,
    "verificationStatus": "verified",
    "openNow": null
  },
  {
    "id": "ChIJDVvGO8kZ2jERmXqeu1w2-MI",
    "name": "The Annex (within Chye Seng Huat Hardware)",
    "category": "cafe",
    "address": "150 Tyrwhitt Rd, Singapore 207563",
    "lat": 1.3115963,
    "lng": 103.8603424,
    "website": "http://www.pppcoffee.com/",
    "phone": "6299 4321",
    "rating": 4.4,
    "userRatingCount": 178,
    "verificationStatus": "verified",
    "openNow": null
  },
  {
    "id": "ChIJDenrTcsT2jEREsYNeECyyJo",
    "name": "Scoop in the Woods",
    "category": "cafe",
    "address": "Blk 304 Woodlands Street 31, #01-111, Singapore 730304",
    "lat": 1.4296741000000002,
    "lng": 103.7740548,
    "phone": "8081 2787",
    "rating": 4.7,
    "userRatingCount": 163,
    "verificationStatus": "verified",
    "openNow": null
  },
  {
    "id": "ChIJYfQkgC492jER0Z1P0q2wB34",
    "name": "Bench Barista SG (Bedok, Bedok Reservoir) - Coffee , Matcha & Pastries , Cafe Singapore",
    "category": "cafe",
    "address": "740 Bedok Reservoir Rd, #01-3171, Singapore 470740",
    "lat": 1.3384038,
    "lng": 103.92277999999999,
    "website": "https://www.instagram.com/bench.barista.sg/",
    "rating": 4.7,
    "userRatingCount": 158,
    "verificationStatus": "verified",
    "openNow": null
  },
  {
    "id": "ChIJt_6oHgAb2jERVnNC_mkdWUI",
    "name": "Wildseed Café at 1-Flowerhill, Sentosa",
    "category": "cafe",
    "address": "6 Imbiah Rd, Singapore 099696",
    "lat": 1.2537753,
    "lng": 103.8183899,
    "website": "https://www.wildseedcafe.sg/1-flowerhill",
    "phone": "9630 3287",
    "rating": 4.5,
    "userRatingCount": 155,
    "verificationStatus": "verified",
    "openNow": null
  },
  {
    "id": "ChIJXRMMQgAZ2jERFBlFKaDSBjY",
    "name": "Good Boy George",
    "category": "cafe",
    "address": "7 Rodyk St, #01-28, Singapore 238215",
    "lat": 1.2897376,
    "lng": 103.838034,
    "website": "http://goodboygeorge.com/",
    "phone": "8834 4692",
    "rating": 4.5,
    "userRatingCount": 148,
    "verificationStatus": "verified",
    "openNow": null
  },
  {
    "id": "ChIJOSzHHHoZ2jER0E5lmMnXPIM",
    "name": "river coffee & bakes (fka Nicher)",
    "category": "cafe",
    "address": "60 Springside Walk, #01-08, Brooks, Singapore 786020",
    "lat": 1.4047524,
    "lng": 103.8195013,
    "website": "https://nicherbakery.myshopify.com/",
    "rating": 4.8,
    "userRatingCount": 142,
    "verificationStatus": "verified",
    "openNow": null
  },
  {
    "id": "ChIJ1cK9-zQZ2jERQDuE_VJrQRY",
    "name": "Coexist Coffee Co. @Lifelong Learning Institute",
    "category": "cafe",
    "address": "11 Eunos Rd 8, #01-02 Lifelong Learning Institute, Singapore 408601",
    "lat": 1.3198865,
    "lng": 103.8926179,
    "website": "https://www.coexistcoffee.co/",
    "rating": 4.5,
    "userRatingCount": 2062,
    "verificationStatus": "verified",
    "openNow": null
  },
  {
    "id": "ChIJNX0hZdgW2jERAtCfhtkha58",
    "name": "GRUB Stevens Road",
    "category": "cafe",
    "address": "30 Stevens Rd, #01-06 Novotel @ Stevens, Singapore 257840",
    "lat": 1.3136339,
    "lng": 103.8286023,
    "website": "http://www.grub.com.sg/",
    "phone": "8891 9298",
    "rating": 4.2,
    "userRatingCount": 1940,
    "verificationStatus": "verified",
    "openNow": null
  },
  {
    "id": "ChIJv6H9GM0V2jERwDaevQ2lbEs",
    "name": "Hangar66 Cafe",
    "category": "cafe",
    "address": "66 Seletar Aerospace View, #66 Level 1 WOA Aviation Hangar, 66, Singapore 797509",
    "lat": 1.4126938,
    "lng": 103.86971860000001,
    "website": "https://www.wingsoverasia.com/hangar66-cafe",
    "phone": "8711 8677",
    "rating": 4.6,
    "userRatingCount": 1860,
    "verificationStatus": "verified",
    "openNow": null
  },
  {
    "id": "ChIJC6Atrw0Z2jERJ8FHIn-pwz0",
    "name": "Sarnies",
    "category": "cafe",
    "address": "136 Telok Ayer St, Singapore 068601",
    "lat": 1.2816389,
    "lng": 103.84796940000001,
    "website": "http://sarnies.com/",
    "phone": "9810 9608",
    "rating": 4.1,
    "userRatingCount": 1854,
    "verificationStatus": "verified",
    "openNow": null
  },
  {
    "id": "ChIJV7Z0bwYa2jER98QDzqfnkgE",
    "name": "Atlas Coffeehouse",
    "category": "cafe",
    "address": "6 Duke's Rd, Singapore 268886",
    "lat": 1.3230716999999999,
    "lng": 103.81205240000001,
    "website": "http://www.atlascoffeehouse.com.sg/",
    "phone": "6314 2674",
    "rating": 4.2,
    "userRatingCount": 1768,
    "verificationStatus": "verified",
    "openNow": null
  },
  {
    "id": "ChIJmUOGncMZ2jERODwVxAaMAIY",
    "name": "Kings Cart Coffee Factory",
    "category": "cafe",
    "address": "328 Joo Chiat Rd, #01-05, Singapore 427585",
    "lat": 1.3090864,
    "lng": 103.9023852,
    "website": "https://www.kingscartcoffee.com/joo-chiat-menu",
    "phone": "8814 8445",
    "rating": 4.6,
    "userRatingCount": 1623,
    "verificationStatus": "verified",
    "openNow": null
  },
  {
    "id": "ChIJlU1sIyYV2jERZ_plMDpdCcU",
    "name": "Charcoal Mookata 1018 Sembawang - The Addiction Bistro",
    "category": "cafe",
    "address": "1018 Sembawang Rd, Singapore 758495",
    "lat": 1.4533182000000002,
    "lng": 103.8323377,
    "website": "https://social.quandoo.com/en/groups/The%20Addiction%20Bistro",
    "rating": 4.8,
    "userRatingCount": 1584,
    "verificationStatus": "verified",
    "openNow": null
  },
  {
    "id": "ChIJZ82iIGIQ2jERmsBNVdH2nQw",
    "name": "Carpenter & Cook",
    "category": "cafe",
    "address": "19 Lor Kilat, #01-06, Singapore 598120",
    "lat": 1.3409251,
    "lng": 103.7735412,
    "website": "https://www.carpenterandcook.com/",
    "phone": "6463 3648",
    "rating": 4.4,
    "userRatingCount": 1553,
    "verificationStatus": "verified",
    "openNow": null
  },
  {
    "id": "ChIJTe_Wkp0Z2jER207m3YBLy98",
    "name": "Toby's Estate Coffee Roasters Singapore",
    "category": "cafe",
    "address": "8 Rodyk St, Singapore 238216",
    "lat": 1.2899494,
    "lng": 103.8373996,
    "website": "http://tobysestate.com.sg/",
    "phone": "9177 3256",
    "rating": 4.1,
    "userRatingCount": 1529,
    "verificationStatus": "verified",
    "openNow": null
  },
  {
    "id": "ChIJqbv38DoX2jERePtksDQYuM8",
    "name": "Columbus Coffee Co.",
    "category": "cafe",
    "address": "220 Upper Thomson Rd, Singapore 574352",
    "lat": 1.3529,
    "lng": 103.8354207,
    "website": "http://columbuscoffeeco.com/",
    "phone": "6253 6024",
    "rating": 4.2,
    "userRatingCount": 1502,
    "verificationStatus": "verified",
    "openNow": null
  },
  {
    "id": "ChIJWXaBe7QZ2jEROU9dj9KzdPY",
    "name": "BistrOne36 at Boon Keng",
    "category": "cafe",
    "address": "34 Whampoa W, #01-79 Bendemeer Ville, Singapore 330034",
    "lat": 1.3199539,
    "lng": 103.8625038,
    "website": "https://bistrone36.co/",
    "phone": "6291 8110",
    "rating": 4.6,
    "userRatingCount": 1416,
    "verificationStatus": "verified",
    "openNow": null
  },
  {
    "id": "ChIJKS9S8goZ2jERFMO0loxJRYs",
    "name": "Fangko House",
    "category": "cafe",
    "address": "68 S Bridge Rd, #01-01, Singapore 058698",
    "lat": 1.2872892,
    "lng": 103.84806359999999,
    "phone": "9231 8849",
    "rating": 4.7,
    "userRatingCount": 1410,
    "verificationStatus": "verified",
    "openNow": null
  },
  {
    "id": "ChIJbYmXlrkX2jERxTzYlbPJ5hM",
    "name": "Lickers",
    "category": "cafe",
    "address": "124 Hougang Ave 1, #01-1446, Singapore 530124",
    "lat": 1.3529065,
    "lng": 103.88671509999999,
    "website": "http://lickers.com.sg/",
    "rating": 4.3,
    "userRatingCount": 1333,
    "verificationStatus": "verified",
    "openNow": null
  },
  {
    "id": "ChIJcf_SpPk82jERM28p3SYNBnI",
    "name": "Refuel Cafe",
    "category": "cafe",
    "address": "744 Bedok Reservoir Rd, #01-3029 Reservoir Village, Singapore 470744",
    "lat": 1.3375188999999998,
    "lng": 103.9213226,
    "website": "http://refuel.sg/",
    "phone": "6448 0015",
    "rating": 4.2,
    "userRatingCount": 1302,
    "verificationStatus": "verified",
    "openNow": null
  },
  {
    "id": "ChIJm-22KpwZ2jERHav69tu9J48",
    "name": "The Book Cafe",
    "category": "cafe",
    "address": "20 Martin Rd, #01-02 Seng Kee Building, Singapore 239070",
    "lat": 1.2912086,
    "lng": 103.83895419999999,
    "website": "https://www.thebookcafesg.com/",
    "phone": "6887 5430",
    "rating": 4.3,
    "userRatingCount": 1276,
    "verificationStatus": "verified",
    "openNow": null
  },
  {
    "id": "ChIJPYQkQrcb2jER2H0KrdqxUTs",
    "name": "Botanico at The Summerhouse",
    "category": "cafe",
    "address": "3 Park Ln, Level 2 The Summerhouse, Singapore 798387",
    "lat": 1.408043,
    "lng": 103.86832179999999,
    "website": "https://www.botanico.sg/",
    "phone": "8809 5840",
    "rating": 4.5,
    "userRatingCount": 1275,
    "verificationStatus": "verified",
    "openNow": null
  },
  {
    "id": "ChIJmeiLQaQZ2jER9DiO9-UvS5w",
    "name": "Glasshouse",
    "category": "cafe",
    "address": "30 Victoria St, #01-03 CHIJMES, Singapore 187996",
    "lat": 1.2954378,
    "lng": 103.8522782,
    "website": "http://theglasshousesg.com/",
    "phone": "8803 9461",
    "rating": 4.3,
    "userRatingCount": 1266,
    "verificationStatus": "verified",
    "openNow": null
  },
  {
    "id": "ChIJUXL7KbcZ2jERMd4ovMuRAYg",
    "name": "Twenty Grammes Cafe",
    "category": "cafe",
    "address": "753 N Bridge Rd, Singapore 198721",
    "lat": 1.3032958,
    "lng": 103.8592717,
    "website": "http://www.twentygrammes.com/",
    "phone": "9447 2020",
    "rating": null,
    "userRatingCount": 1250,
    "verificationStatus": "verified",
    "openNow": null
  },
  {
    "id": "ChIJH8LySQkZ2jERFAGAVveJaA0",
    "name": "Little Farms Bistro, Katong Point (Restaurant)",
    "category": "cafe",
    "address": "451 Joo Chiat Rd, #01-04, Singapore 427664",
    "lat": 1.3069216,
    "lng": 103.9045661,
    "website": "https://littlefarmscafe.com/pages/little-farms-katong-point-bistro",
    "phone": "3163 7958",
    "rating": 4.6,
    "userRatingCount": 1175,
    "verificationStatus": "verified",
    "openNow": null
  },