id,name,categories,address,lat,lng,rating,userRatingCount,website,phone
ChIJLWE8OWwv9ocRayh4boDxxrM,"Mall of America®","mall","60 E Broadway, Bloomington, MN 55425, USA",44.8548651,-93.2422148,4.6,67761,"https://mallofamerica.com/","(952) 883-8800"
ChIJK7xLl1gZ2jERP_GdUY9XNLo,"VivoCity","mall","1 HarbourFront Walk, Singapore 098585",1.2647138999999998,103.8231658,4.5,54287,"http://www.vivocity.com.sg/","6377 6870"
ChIJFdmwIfas2YgR-_QNr2_AO_c,"Aventura Mall","mall","19501 Biscayne Blvd, Aventura, FL 33180, USA",25.957064300000003,-80.1427391,4.6,43242,"https://aventuramall.com/","(305) 935-1110"
ChIJ0b3z7m7BQIYRr1w81iD6A34,"The Galleria","mall","5085 Westheimer Rd, Houston, TX 77056, USA",29.7391955,-95.46343420000001,4.5,34902,"https://www.simon.com/mall/the-galleria","(713) 622-0663"
ChIJ0QX_Brki2jER-pZKNdqk_a8,"East Coast Park","park","Singapore",1.3007841999999998,103.9121866,4.6,31556,"https://www.nparks.gov.sg/visit/parks/park-detail/east-coast-park",""
ChIJFYwx7YYrTIYRHCf2hZihRtM,"Grapevine Mills","mall","3000 Grapevine Mills Pkwy, Grapevine, TX 76051, USA",32.965993,-97.04276039999999,4.5,28502,"https://www.simon.com/mall/grapevine-mills","(972) 724-4900"
ChIJwwPTwi-5woARbtuI_49vkMM,"The Grove","mall","189 The Grove Dr, Los Angeles, CA 90036, USA",34.0719407,-118.35751640000001,4.6,27654,"https://thegrovela.com/?utm_source=local-listings&utm_medium=organic&utm_campaign=local-listings","(323) 900-8080"
ChIJ20X__K4Z2jERRE8GRs-d8HE,"Suntec City","mall","3 Temasek Blvd, Singapore 038983",1.2950324,103.85830150000001,4.4,27096,"https://sunteccity.com.sg/",""
ChIJ7xlFdKwT2jERXrseJIzS6tI,"Citrus By The Pool","cafe","3 Woodlands Street 13, Woodlands Swimming Complex, Singapore 738600",1.4344838,103.77948479999999,4.9,24975,"http://www.citrusbythepool.com/","6366 6581"
ChIJh_lm4VkPK4cRXbEZE_pSxx0,"Arizona Mills","mall","5000 S Arizona Mills Cir, Tempe, AZ 85282, USA",33.383125,-111.964485,4.4,23942,"https://www.simon.com/mall/arizona-mills","(480) 491-9700"
ChIJa9YM2-wP2jERmOUStQKyiS0,"Jurong Point","mall","1 Jurong West Central 2, Singapore 648886",1.3397443,103.7067297,4.4,22849,"https://www.jurongpoint.com.sg/","6950 8134"
ChIJZ1omp8gZ2jERgDUAb_hBKLY,"City Square Mall","mall","180 Kitchener Rd, Singapore 208539",1.3114516,103.85616080000001,4.3,22604,"http://www.citysquaremall.com.sg/","6595 6595"
ChIJZ6EbFTBt2jERflX9tqaEOF0,"KSL City Mall","mall","LG 64, 33, Jalan Seladang, Taman Abad, 80250 Johor Bahru, Johor Darul Ta'zim, Malaysia",1.4858456,103.762422,4.1,22437,"http://www.kslcity.com.my/","07-288 2888"
ChIJeRqAraYX2jERQpyIAXSU1SU,"NEX","mall","Serangoon Central, 23, Singapore 556083",1.3507155,103.8720247,4.3,22025,"http://www.nex.com.sg/","6416 6366"
ChIJy4nAbDlJzDER6HZyA4ZtdpE,"Sunway Putra Mall","mall","100, Jalan Putra, Chow Kit, 50350 Kuala Lumpur, Wilayah Persekutuan Kuala Lumpur, Malaysia",3.1665524,101.6924341,4.3,21937,"https://www.sunwayputramall.com/","03-2786 9300"
ChIJa79jQA-J2TERfO2f9xml320,"Mega Mall Batam Centre","mall","Jl. Engku Putri No.1, Belian, Kec. Batam Kota, Kota Batam, Kepulauan Riau 29461, Indonesia",1.1293427,104.0558822,4.5,21389,"","(0778) 470100"
ChIJZ6vyT8MS2jERZbHkx3oUHnQ,"Johor Bahru City Square","mall","106-108, Jalan Wong Ah Fook, Bandar Johor Bahru, 80888 Johor Bahru, Johor Darul Ta'zim, Malaysia",1.4616246,103.76359599999999,4.3,20805,"http://www.citysqjb.com/","07-226 3668"
ChIJAz1IDPgF9YgRvAlr9MLd7w0,"Lenox Square","mall","3393 Peachtree Rd NE, Atlanta, GA 30326, USA",33.8467226,-84.3637487,4.4,20359,"https://www.simon.com/mall/lenox-square","(404) 233-6767"
ChIJf04EMFuU9YgR4KKvOBkxfKE,"Mall of Georgia","mall","3333 Buford Dr, Buford, GA 30519, USA",34.0651406,-83.9844837,4.5,19494,"https://www.simon.com/mall/mall-of-georgia","(678) 482-8788"
ChIJ4fJpipWfToYR1Kr3mLoQ_JU,"NorthPark Center","mall","8687 N Central Expy, Dallas, TX 75225, USA",32.868639,-96.77392979999999,4.6,19379,"http://www.northparkcenter.com/","(214) 363-7441"
ChIJIf-ff_9y2jERb19MfG9Nuw0,"Paradigm Mall Johor Bahru JB","mall","K013, Paradigm Mall, Skudai Hwy, Taman Bukit Mewah, 81200 Johor Bahru, Johor, Malaysia",1.5156318,103.68574369999999,4.3,19254,"http://www.paradigmmall.com.my/jb","07-231 3888"
ChIJ9b849YC32YgR612tUl-KdyM,"Brickell City Centre","mall","701 S Miami Ave, Miami, FL 33130, USA",25.7672194,-80.1926107,4.7,18943,"https://www.simon.com/mall/brickell-city-centre","(786) 515-9041"
ChIJb20nHg8Q2jERuBnOGGnuq-s,"Jem","mall","50 Jurong Gateway Rd, Singapore 608549",1.332647,103.7433111,4.3,17610,"http://www.jem.sg/","6225 5536"
ChIJ9UKUtjsZ2jER-VszUURb3LI,"Marina Square","mall","6 Raffles Blvd, Singapore 039594",1.2911534,103.8576778,4.4,17404,"http://www.marinasquare.com.sg/",""
ChIJ_7pt85EZ2jERPfKpmuwrzys,"Ngee Ann City","mall","391A Orchard Rd, Singapore 238873",1.3025571999999999,103.83456799999999,4.4,16121,"http://www.ngeeanncity.com.sg/","6733 0337"
ChIJT80kwuYW2jERhogn4ZW0fG4,"AMK Hub","mall","53 Ang Mo Kio Ave 3, Singapore 569933",1.3690023,103.8481594,4.2,15053,"https://www.amkhub.com.sg/","6753 9000"
ChIJR80Wwcoi2jER8yMuAZodQFk,"Bedok Mall","mall","311 New Upper Changi Rd, Singapore 467360",1.3247162,103.92934299999999,4.2,14838,"https://www.capitaland.com/sg/malls/bedokmall/en.html",""
ChIJLTCPpuQV2jERYMYF_2uprDE,"Waterway Point","mall","83 Punggol Central, Singapore 828761",1.4064412,103.9020846,4.4,14770,"http://www.waterwaypoint.com.sg/","6812 7300"
ChIJhXSb5-Dx0TERyKwfXu_R9LE,"Dataran Pahlawan Melaka Megamall","mall","Jln Merdeka, Banda Hilir, 75000 Melaka, Malaysia",2.1899761,102.25042909999999,4.2,14738,"http://www.dataranpahlawan.com/","06-281 2898"
ChIJ82AoVA8Q2jERkHnr1RPW9B4,"Westgate","mall","3 Gateway Dr, Singapore 608532",1.334382,103.7427836,4.3,14718,"https://www.capitaland.com/sg/malls/westgate/en.html","6908 3737"
ChIJsWodKDtoK4cRCM8FvBPSgtA,"Arrowhead Towne Center","mall","7700 W Arrowhead Towne Center, Glendale, AZ 85308, USA",33.6420107,-112.22534929999999,4.4,14707,"https://www.arrowheadtownecenter.com/?utm_source=google&utm_medium=onlinesearch&utm_content=gmp_website_button&utm_campaign=yext","(623) 979-7777"
ChIJBTs97HHMRIYRIAQ_ZGynxHc,"The Domain","mall","11410 Century Oaks Terrace, Austin, TX 78758, USA",30.4020649,-97.7258829,4.5,14325,"https://www.simon.com/mall/the-domain","(512) 795-4230"
ChIJl_sOMpIZ2jERKgmuCf4FCs0,"Paragon","mall","290 Orchard Rd, Singapore 238859",1.3039633,103.8360565,4.4,14006,"https://www.paragon.com.sg/",""
ChIJi9z06QuJ2TERIUtp9YifElU,"Batam City Square Mall","mall","42M6+24P, Jl. Bunga Raya, Batu Selicin, Kec. Lubuk Baja, Kota Batam, Kepulauan Riau 29444, Indonesia",1.1325887,104.0103355,4.4,13731,"","(0778) 7435500"
ChIJg0iEvagT2jERLpza72gaJ08,"Causeway Point","mall","1 Woodlands Sq, Singapore 738099",1.4360933,103.78594710000002,4.3,13688,"https://www.causewaypoint.com.sg/","6894 2237"
ChIJo47c6KSFbIcRX_w1_056FZI,"Park Meadows","mall","8401 Park Meadows Center Dr, Lone Tree, CO 80124, USA",39.562641,-104.876604,4.5,13519,"https://www.parkmeadows.com/en.html","(303) 792-2999"
ChIJb-ErmBYX2jERBl1gF7cPIj4,"Junction 8","mall","9 Bishan Pl, Singapore 579837",1.3506808,103.8487631,4.2,13359,"http://junction8.com.sg/",""
ChIJPyKq0o082jERd1bghvwiadU,"Changi City Point","mall","5 Changi Business Park Central 1, Singapore 486038",1.3342732,103.96273869999999,4.3,12381,"http://www.changicitypoint.com.sg/",""
ChIJwSNJ77oZ2jERuX8Bl5bU2tI,"Bugis+","mall","201 Victoria St, Singapore 188067",1.2995955,103.8542191,4.3,12300,"http://www.bugisplus.com.sg/en/",""
ChIJg6KI8ZEZ2jER9W7OwvUXPRs,"Takashimaya Shopping Centre","mall","391 Orchard Rd, Singapore 238872",1.3024048,103.8347024,4.5,11965,"https://www.takashimayasc.com.sg/","6738 1111"
ChIJ1d2SceBwK4cRND_CfkHy2qE,"Desert Ridge Marketplace","mall","21001 N Tatum Blvd, Phoenix, AZ 85050, USA",33.6762528,-111.97307839999999,4.6,11748,"http://shopdesertridge.com/","(480) 513-7586"
ChIJJbxU-5WJ2TERxAjKDa3YwOk,"Grand Batam Mall","mall","Jl. Pembangunan, Batu Selicin, Kec. Lubuk Baja, Kota Batam, Kepulauan Riau 29444, Indonesia",1.1357259,104.00690630000001,4.7,11585,"https://www.instagram.com/grandbatam/","(0778) 4888800"
ChIJVSYjJKIZ2jERpRFinATD52s,"Fort Canning Park","park","Singapore",1.2943875999999999,103.8458033,4.6,11489,"https://www.nparks.gov.sg/visit/parks/park-detail/fort-canning-park","1800 471 7300"
ChIJ18C-mwoZ2jERlpSawcucgk0,"Clarke Quay Central","mall","6 Eu Tong Sen St, Singapore 059817",1.2890252,103.8466098,4.3,11147,"https://www.fareastmalls.com.sg/Clarke-Quay-Central/",""
ChIJq8UGJo4a2jER0ypiQDLiXpg,"The Clementi Mall","mall","3155 Commonwealth Ave W, Singapore 129588",1.314918,103.76430889999999,4.1,10604,"https://www.theclementimall.com/","6659 4118"
ChIJ5QaXI4kZ2jER6yB_aFocFMw,"LAMY RAFFLES CITY","mall","252 N Bridge Rd, B1-K7 Raffles City, Singapore 179103",1.2940099999999999,103.85314729999999,4.4,10468,"http://rafflescity.com.sg/","6318 0238"
ChIJX4Jmj5B-bIcR48cSaPW_jR0,"Cherry Creek Shopping Center","mall","3000 E 1st Ave, Denver, CO 80206, USA",39.7168183,-104.9526302,4.2,10379,"https://www.simon.com/mall/cherry-creek-shopping-center","(303) 388-3900"
ChIJVVVVcOcZ2jERuHgJL1B5Aj4,"Velocity @ Novena Square","mall","238 Thomson Rd, Singapore 307683",1.3200049,103.8439137,4.1,10200,"http://www.velocitynovena.com/","6358 0700"
ChIJy5hMcg8X2jERZ88iA4l4aBY,"Compass One","mall","1 Sengkang Square, Singapore 545078",1.3920064,103.89505,4.2,10127,"http://www.compassone.sg/","6819 0733"
ChIJ5-YuwMFz2jERCJbqqo0ig0U,"Sutera Mall","mall","L1-046, Sutera Mall, 1, Jalan Sutera Tanjung 8/4, Taman Sutera Utama, 81300 Skudai, Johor, Malaysia",1.517129,103.6714742,4.1,9874,"http://www.suteramall.com/","07-558 9009"
ChIJieJYb4aJ2TERohYX7oMHxmk,"Hypermart Batam Nagoya","supplies","Jl. T. Umar / Jl. Imam Bonjol Nagoya Hill, Komp. Nagoya Hill Superblock, Batam, Level LG, Lubuk Baja Kota, Lubuk Baja, Batam City, Riau Islands 29432, Indonesia",1.146366,104.012011,4.5,9820,"http://hypermart.co.id/",""
ChIJJ24bHm5t2jERGg6dlG1GERQ,"Nimmies Pastry Cafe","cafe","171, Jln Beringin, Taman Melodies, 80250 Johor Bahru, Johor Darul Ta'zim, Malaysia",1.4904425,103.7660516,4.5,9491,"https://www.nimmiespastrycafe.com/","012-301 9272"
ChIJjQcl90sY2jER0d9ui1pFp9s,"Kallang Wave Mall","mall","1 Stadium Pl, Singapore 397628",1.3026669,103.87376409999999,4.3,9184,"https://www.sportshub.com.sg/shop-dine","6539 9276"
ChIJ2WUXmnEY2jERoGOSkJVgnrY,"Parkway Parade","mall","80 Marine Parade Rd, Singapore 449269",1.3013366,103.90523329999999,4.3,9062,"https://www.parkwayparade.com.sg/","6344 1242"
ChIJe5qyMnkZ2jERYRN7QP_pCMQ,"Tiong Bahru Plaza","mall","302 Tiong Bahru Rd, Singapore 168732",1.2866535,103.82714589999999,4.2,8966,"http://www.tiongbahruplaza.com.sg/","6276 4686"
ChIJ91hVlEIa2jERm_cxYZ2WKow,"The Star Vista","mall","1 Vista Exchange Grn, Singapore 138617",1.3068072,103.7883997,4.3,8931,"https://thestarvista.sg/","6694 3111"
ChIJjyjjwCAX2jERxYHvTxAw4X0,"Bishan-Ang Mo Kio Park","park","1384 Ang Mo Kio Ave 1, Singapore",1.3634088,103.8435614,4.5,8878,"https://www.nparks.gov.sg/contact-us",""
ChIJ_8HAraQR2jERaLrfjzD5k7Y,"Hillion Mall","mall","17 Petir Rd, Singapore 678278",1.3785144,103.76301959999999,4.2,8817,"https://www.hillionmall.com.sg/","6769 0009"
ChIJ50uIMa0Z2jER0cTt5fLaZt0,"Marina Barrage","park","8 Marina Gardens Dr, #01-03 Marina Barrage, Singapore 018951",1.2805168,103.8714399,4.6,8519,"https://www.pub.gov.sg/marinabarrage/aboutmarinabarrage","6514 5959"
ChIJb3hhFJTG2YgRBe_10SlsK1w,"The Falls","mall","8888 SW 136th St, Miami, FL 33176, USA",25.644728699999998,-80.3383436,4.6,8143,"https://www.simon.com/mall/the-falls","(305) 255-4570"
ChIJ0YqcCHYM2jERMxg2ZEztEjE,"Gleneagles Hospital Medini Johor","vet","2, Jalan Medini Utara 4, 79250 Iskandar Puteri, Johor Darul Ta'zim, Malaysia",1.4265967000000002,103.6355912,4.8,8130,"https://gleneagles.com.my/johor","07-560 1000"
ChIJkyCpkWcT2jER1Nsl0ZvOI4Q,"Bird Paradise","park","20 Mandai Lake Rd, Singapore 729825",1.4071539,103.7812684,4.7,8031,"https://www.mandai.com/en/bird-paradise.html?cmp=www%7Cbpd%7Cawa%7Cgen%7Cgg_biz%7Cgg%7C%7Cgoogle_business_profile%7C&utm_campaign=gen&utm_medium=gg_biz&utm_source=gg&",""
ChIJs5CBlukR2jER-uyFhQ2NFbU,"Lot One","mall","21 Choa Chu Kang Ave 4, Singapore 689812",1.3851168999999999,103.7449142,4.1,7854,"https://www.capitaland.com/sg/malls/lotone/en.html","6314 6200"
ChIJUzbaYws82jERXHKMRlUKIug,"Changi Beach Park","park","Nicoll Dr, Singapore 498991",1.3912863,103.99054640000001,4.5,7693,"","1800 471 7300"
ChIJB14IQoMZ2jERyjiLXouuJe0,"Great World","mall","1 Kim Seng Promenade, Singapore 237994",1.2936417,103.8319293,4.3,7673,"https://shop.greatworld.com.sg/","6737 3855"
ChIJTzOjnDcW2jERHyoyj5LFmQ4,"Hougang Mall","mall","90 Hougang Ave 10, Singapore 538766",1.372455,103.89382769999999,4,7549,"http://www.hougangmall.com.sg/","6488 9617"
ChIJ7egDUyI92jERegSiojEDekc,"Eastpoint Mall","mall","3 Simei Street 6, Singapore 528833",1.3427145,103.9530415,4.1,7534,"http://www.eastpoint.sg/","6587 7200"
ChIJxzbY1z4Q2jER7drH__TXbOI,"West Mall","mall","1 Bt Batok Central, Singapore 658713",1.3500565,103.749223,4.1,7451,"http://www.westmall.com.sg/","6309 1166"
ChIJ83SVew0Z2jERsfl0iOB4Pco,"My Awesome Cafe","cafe","202 Telok Ayer St, Singapore 068639",1.2801094000000002,103.8472056,4.7,7335,"http://www.myawesomecafe.com/","8798 1783"
ChIJDxouhvNNDogRwGkEt9yx94Y,"Yorktown Center","mall","203 Yorktown Shopping Center, Lombard, IL 60148, USA",41.8396148,-88.0069602,4.4,7075,"http://www.yorktowncenter.com/","(630) 629-7330"
ChIJQ8uk4vwa2jERqMrT6OFBMuw,"West Coast Park","park","W Coast Ferry Rd, Singapore 126978",1.2913603,103.7666534,4.4,6930,"https://www.nparks.gov.sg/gardens-parks-and-nature/parks-and-nature-reserves/west-coast-park","1800 471 7300"
ChIJRwKG2mQW2jER13VL9P5QOws,"The Seletar Mall","mall","33 Sengkang W Ave, Singapore 797653",1.3915208,103.8760834,4.2,6814,"https://theseletarmall.com.sg/","6341 6252"
ChIJz9oB1pYZ2jERqaC3PCo3CpQ,"DON DON DONKI Orchard Central","supplies","181 Orchard Road, Orchard Central, #B2 01-10/30, 43 B1, #15-29/K7/K8 &, Singapore 238896",1.3008807999999998,103.8400248,4.4,6729,"https://www.dondondonki.com/sg/","6834 4311"
ChIJQyaM-6892jER4DhQn_hqaYE,"White Sands","mall","1 Pasir Ris Central St 3, Singapore 518457",1.3724166,103.9496584,4.1,6717,"http://www.whitesands.com.sg/","6585 0606"
ChIJNTlhccg92jERBftThrByZK0,"Pasir Ris Town Park","park","Along, Pasir Ris Central, Opposite MRT Station, Singapore 519639",1.3720588,103.95268000000002,4.4,6336,"","1800 471 7300"
ChIJWQLwKP0P2jER-AOMrDbkIW8,"Jurong Lake Gardens","park","Yuan Ching Rd, Singapore",1.3348491999999998,103.72645569999999,4.6,6318,"https://www.nparks.gov.sg/juronglakegardens",""
ChIJo_z7IqkZ2jERE1tkSZmYR8o,"Millenia Walk","mall","9 Raffles Blvd, Singapore 039596",1.2916585,103.85976289999999,4.2,6117,"http://www.milleniawalk.com/","6883 1122"
ChIJfbGFlZ6y2YgR7CYFiAeb9QE,"Bal Harbour Shops","mall","9700 Collins Ave, Bal Harbour, FL 33154, USA",25.888595,-80.12488359999999,4.7,6076,"https://www.balharbourshops.com/","(305) 866-0311"
ChIJyyaE0q4e2jERSZ9xGmqPcI0,"Sofitel Singapore Sentosa","hotel","2 Bukit Manis Rd, Sentosa, Singapore 099891",1.2457019,103.8277056,4.3,6042,"http://sofitel.accor.com/hotels/9474?merchantid=seo-maps-SG-9474&sourceid=aw-cen&utm_source=google+Maps&utm_medium=seo+maps&utm_campaign=seo+maps&utm_term=Sofitel-Launch","6708 8310"
ChIJHYe2MX0T2jER6vve5JwvRvw,"Sun Plaza","mall","30 Sembawang Dr, Singapore 757713",1.4481944999999998,103.81962469999999,4,6033,"https://www.sunplaza.com.sg/","6481 4458"
ChIJMzH2uxlt2jERsbV0ysTBI8Q,"SOGO Johor Bahru","mall","Sogo midvalley, Southkey, 81100 Johor Bahru, Johor Darul Ta'zim, Malaysia",1.5004533,103.778205,4.4,5985,"https://www.sogo.com.my/","016-765 6341"
ChIJe3kTN6MR2jERr5FbmFCuxPI,"Bukit Panjang Plaza","mall","1 Jelebu Rd, Singapore 677743",1.3800396,103.7642339,4.2,5850,"http://www.bukitpanjangplaza.com.sg/",""
ChIJJ9TgVLwU2jERIYaBgBL-vn0,"Sembawang Park","park","Sembawang Rd, Singapore",1.4616658999999999,103.8368876,4.4,5829,"https://www.nparks.gov.sg/contact-us","1800 471 7300"
ChIJRZ1c0JYZ2jER6cpyNpOyf3M,"The Centrepoint","mall","176 Orchard Rd, Singapore 238843",1.3012253,103.83986519999999,4.1,5815,"http://www.thecentrepoint.com.sg/","6737 9000"
ChIJc4rrRyMa2jERC31T5xHBk0o,"PS.Cafe Harding Road","cafe","28B Harding Rd, Singapore 249549",1.3047585,103.8110071,4.4,5769,"http://www.pscafe.com/pscafe-at-harding-road/?utm_source=google&utm_medium=organic&utm_campaign=gmb","6708 9288"
ChIJncjPBA8U2jER5ol9uaCD7KY,"ORTO","park","27 W Coast Hwy, Singapore 117867",1.2831852,103.7805348,4.2,5709,"http://orto.sg/",""
ChIJU8zODXwZ2jERNsDnX0rcqpQ,"PLQ Mall","mall","10 Paya Lebar Rd, Singapore 409057",1.3176666,103.89316269999999,4.4,5678,"https://www.payalebarquarter.com/","6955 8800"
ChIJS-YaogMdai4Rbdufbh5ewZY,"Dogs Ministry | Dog Cafe • Grooming • SPA • Dog Park • Pet Shop • Dog Pool • Dog Hotel & Day Care |","cafe","Jl. Pluit Indah No.4, RT.6/RW.6, Pluit, Kecamatan Penjaringan, Jkt Utara, Daerah Khusus Ibukota Jakarta 14450, Indonesia",-6.1180185,106.79306369999999,4.8,5644,"https://www.instagram.com/dogsministry/","0811-8078-678"
ChIJbV9Xho0Z2jERrixofz0u32Q,"TANGS at Tang Plaza","mall|supplies","310 Orchard Rd, Tang Plaza, Singapore 238864",1.3047955,103.8329225,4.3,5478,"https://www.tangs.com/","6737 5500"
ChIJZRZ9yroZ2jER4R3Hm0_9Phs,"InterContinental Singapore","hotel","80 Middle Rd, Singapore 188966",1.2984504,103.85486499999999,4.6,5381,"https://www.ihg.com/intercontinental/hotels/us/en/singapore/sinhb/hoteldetail?cm_mmc=GoogleMaps-_-IC-_-SG-_-SINHB","6338 7366"
ChIJUx8eOEE92jERmp8crTVcq-8,"Cosford Container Park","park","30 Cosford Rd, Singapore 499550",1.3652545,103.98123179999999,4.8,5376,"https://cosfordcontainerpark.com/","8032 5336"
ChIJ5-zrBoEU2jERhLnuZ0bgvUw,"Sembawang Shopping Centre","mall","604 Sembawang Rd, Singapore 758459",1.4416149999999999,103.8246417,4,5302,"http://www.sembawangsc.com.sg/","6757 8000"
ChIJRX3v4ecZ2jERD0BlqjhXKCc,"United Square Shopping Mall","mall","101 Thomson Rd, Singapore 307591",1.3171849,103.8436045,4.1,5051,"http://www.unitedsquare.com.sg/","6251 5885"
ChIJjRyU93IY2jERVeVw3ZFo-is,"i12 Katong","mall","112 E Coast Rd, Singapore 428802",1.3052432999999999,103.9052341,4,4766,"https://i12katong.com.sg/","6306 3272"
ChIJe0cEPoIS2jERs_rS2qvGOxw,"Sungei Buloh Wetland Reserve","park","301 Neo Tiew Cres, Singapore 718925",1.4464304,103.723404,4.6,4613,"https://www.nparks.gov.sg/sbwr","6794 1401"
ChIJdeB0FI0Z2jERfMMx7jtAfsg,"YOTEL Singapore Orchard Road","hotel","366 Orchard Rd, Singapore 238904",1.3058933,103.8309201,4.3,4557,"https://www.yotel.com/en/hotels/yotel-singapore?utm_source=Google&utm_medium=Yext_YOSOR","6866 8000"
ChIJwz3yHMEb2jERHclcbs5KL4A,"Alexandra Retail Centre (ARC)","mall","460 Alexandra Rd, Singapore 119963",1.2739139,103.8015008,4.1,4525,"http://www.arc4u.com.sg/","6807 4438"
ChIJ7xZ3TVUZ2jERfjDHnlIvir8,"Amara Sanctuary Sentosa","hotel","Sentosa Island, 1 Larkhill Rd, Singapore 099394",1.2520799000000002,103.822159,4.3,4478,"https://sentosa.amarahotels.com/","6825 3888"
ChIJqUyluPrH2YgR7zzx1vvrHHQ,"The Shops At Sunset Place","mall","5701 Sunset Dr #350, South Miami, FL 33143, USA",25.7054689,-80.2863986,4.2,4475,"https://www.shopsunsetplace.com/","(305) 663-0482"
ChIJjS4cuwoZ2jERCTeN-k9LUIE,"Paradox Singapore","hotel","20 Merchant Rd, Singapore 058281",1.2884308,103.8458053,4.4,4463,"https://www.paradoxhotels.com/singapore/?utm_source=local-directories&utm_medium=organic&utm_campaign=travelclick-localconnect","6337 2288"
ChIJfZmGM5EZ2jERgDzwv5rdA-U,"Orchard Gateway","mall","277 Orchard Rd, Singapore 238858",1.3007001999999999,103.8394225,4.3,4288,"https://www.orchardgateway.sg/","6513 4633"
ChIJEVipoi1t2jERSAPBSPOsOpg,"Plaza Pelangi","mall","Jalan Kuning, Taman Pelangi, 80400 Johor Bahru, Johor Darul Ta'zim, Malaysia",1.4804916,103.7651672,4,4211,"","07-276 2216"
ChIJoavrZ-cZ2jEROHbTzqYlVM4,"Square 2","mall","10 Sinaran Dr, #02-04, Singapore 307506",1.3208322,103.8441474,4.1,4138,"https://www.fareastmalls.com.sg/Square-2/",""
ChIJy64vxOwP2jEReg2oFBt1KJ4,"FairPrice","supplies","63 Jurong West Central 3, #03 - 01, Singapura 648331",1.339622,103.7052417,4.4,4089,"https://www.fairprice.com.sg/","6790 1477"
ChIJqT5ZyJUL2jER9FZNyBn35go,"Bazar Mydin Anjung Nusajaya","supplies","G, 25, Jln Ismail Sultan, East Ledang, 79250 Gelang Patah, Johor, Malaysia",1.4240811000000002,103.617271,4,4052,"","07-510 1505"
ChIJNRelbgMT2jERD6Ak-zoK23U,"Admiralty Park","park","31 Riverside Rd, Singapore 730000",1.4465534999999998,103.78065649999999,4.5,4041,"https://www.nparks.gov.sg/visit/parks/park-detail/admiralty-park","1800 471 7300"
ChIJoxbzKbBt2jERvVZy1M2rIjY,"Pandan City Mall","mall","Jalan Sri Purnama, Kawasan Perindustrian Seri Pernama, 81100 Johor Bahru, Johor Darul Ta'zim, Malaysia",1.5260565,103.7646541,4.1,4013,"https://m.facebook.com/pages/category/Shopping---Retail/Pandan-City-Mall-Shopping-188186158601298/","010-214 4601"
ChIJlXvHK9MV2jERDfpqKEaKw4U,"Wildseed Café at The Summerhouse","cafe|park|mall","3 Park Ln, Level 1A Seletar Aerospace Drive, Singapore 798387",1.4079884999999999,103.86830669999999,4.3,4011,"https://www.wildseedcafe.sg/the-summerhouse","8126 7524"
ChIJJemS1tIV2jERDIQYdg9cohs,"Wheeler's Estate","cafe|park","2 Park Ln, Singapore 798386",1.4093057,103.86805869999999,4.1,3951,"http://wheelersestate.com/","9735 7332"
ChIJdwZzQABz2jERUHMr1SBm890,"Capyba Cafe","cafe","28, Jalan Nakhoda 2, Taman Ungku Tun Aminah, 81300 Skudai, Johor Darul Ta'zim, Malaysia",1.5192676999999999,103.6602159,4.7,3943,"https://www.instagram.com/capybababa","016-759 3880"
ChIJi090zPwS2jERiJCqFWoP8Z4,"Woodlands Waterfront Park","park","Admiralty Rd W, Singapore 759956",1.4530529,103.78048009999999,4.5,3902,"https://www.nparks.gov.sg/contact-us","1800 471 7300"
ChIJw62n3Vo92jERl8c1cg9hXzE,"Bedok Reservoir Park","park","760 Bedok Reservoir Rd, Singapore 479245",1.3391412999999999,103.922706,4.5,3858,"https://www.nparks.gov.sg/contact-us","1800 471 7300"
ChIJVc5t64gU2jERI8c3Wc4E65s,"B2K Pet Care","supplies","15 Yishun Industrial Street 1, #05-25 Win 5, Singapore 768091",1.4377703000000002,103.8442388,4.9,3853,"https://www.b2kpet.com/","6455 3696"
ChIJy7i1M7oZ2jERzOPX6GDhBDw,"OG Albert","supplies","60 Albert St, Singapore 189969",1.3024487999999999,103.8538286,4.1,3846,"http://www.og.com.sg/","6210 2222"
ChIJpeuce8sb2jERad66-Hwmus8,"Queensway Shopping Center","mall","1 Queensway, Shopping Centre, Singapore 149053",1.2875231,103.80310630000001,4.2,3796,"https://queenswayshoppingcentre.com.sg/",""
ChIJg1XpaYeJ2TERf7__XXuNaG0,"Nagoya Citywalk","mall","Nagoya Citywalk, Kompleks, Lubuk Baja Kota, Kec. Lubuk Baja, Kota Batam, Kepulauan Riau 29444, Indonesia",1.1434176999999999,104.0075074,4.2,3759,"https://www.facebook.com/NagoyaITCentre","(0778) 430000"
ChIJcxlLrHAZ2jERm05zyojvrQU,"MERCI MARCEL TIONG BAHRU","cafe","56 Eng Hoon St, #01-68, Singapore 160056",1.2844364000000001,103.8336932,4.7,3610,"http://mercimarcelgroup.com/","6513 9145"
ChIJmXU4W4oZ2jERDul4uxP0pYc,"Tanglin Mall","mall","163 Tanglin Rd, Singapore 247933",1.3048319,103.8234545,4.2,3566,"http://www.tanglinmall.com.sg/","6736 4922"
ChIJubOCU5Yb2jERxJK090o7Po4,"The Dempsey Project","cafe|mall","Block 9 Dempsey Rd, #01-12, Singapore 247697",1.3037485,103.80997239999999,4.5,3555,"https://thedempseyproject.com/","6475 2005"
ChIJC_JDKDAX2jERK0VIm3J7qZI,"Thomson Plaza","mall","301 Upper Thomson Rd, #01-84, Singapore 574408",1.3548586,103.83089059999999,4.1,3541,"https://www.thomsonplaza.com.sg/","6454 9133"
ChIJ7aoYFPg92jER2jM2zMAKjrY,"Whisk & Paddle","cafe","10 Tebing Ln, Singapore 828836",1.3931753999999998,103.9172983,4.1,3490,"http://www.whiskandpaddle.com.sg/","6242 4617"
ChIJSycbnpuJ2TERLBNUjDC0jqE,"Cafe Cabuci (Cafe Bukit Cinta)","cafe","Jl. Yos Sudarso No.45, Kp. Pelita, Kec. Lubuk Baja, Kota Batam, Kepulauan Riau 29444, Indonesia",1.1443474999999999,104.02167159999999,4.4,3422,"",""
ChIJO1VVxd8b2jERTvL6uurcNWY,"Southern Ridges","park","Singapore",1.2790199,103.8094952,4.6,3391,"","1800 471 7300"
ChIJ4aswsUUj2jERGGfTPlHZjys,"PS.Cafe East Coast Park","cafe|park","1110 ECP, Singapore 449880",1.3041648,103.9243163,4.3,3382,"https://www.pscafe.com/pscafe-east-coast-park/?utm_source=google&utm_medium=organic&utm_campaign=gmb","6708 9288"
ChIJZdlKPGAX2jERZlOP1cN5tpE,"Zhongshan Mall","mall","20 Ah Hood Rd, Singapore 329984",1.3270617999999998,103.8464431,4.1,3357,"https://zhongshanmall.com.sg/","6250 2200"
ChIJI3lje4wn2jERJo_Abfxfzks,"Montigo Resorts","hotel","Jalan Hang Lekir, Sambau, Kecamatan Nongsa, Kota Batam, Kepulauan Riau 29465, Indonesia",1.1802135,104.0738033,4.4,3321,"https://nongsa.montigoresorts.com/","(0778) 7768888"
ChIJ34RyshcY2jERneNcLqsPK3o,"City Plaza","mall","810 Geylang Rd, Singapore 409286",1.3147665,103.8934127,4,3312,"","6748 0997"
ChIJxVpBl3QZ2jERgpFFg4bPFKA,"OG People's Park","supplies","100 Upper Cross St, Singapore 058360",1.2850967,103.8431561,4,3292,"http://www.og.com.sg/","6535 8888"
ChIJqbrxYIwZ2jERV9rTVcsl1Lk,"Four Seasons Hotel Singapore","hotel","190 Orchard Blvd, Singapore 248646",1.3050876999999999,103.828718,4.6,3285,"https://www.fourseasons.com/singapore/?utm_source=google&utm_medium=organicsearch&utm_campaign=tor-sin-hre-mid-seo-na&utm_content=na-na&utm_term=na","6734 1110"
ChIJC_hOgcgb2jERfF9HNB10xfI,"HortPark","park","33 Hyderabad Rd, Singapore 119578",1.2791306999999998,103.7998185,4.5,3252,"https://www.nparks.gov.sg/contact-us",""
ChIJs3oprUQQ2jERp8A9mbkPZJE,"Bukit Batok Nature Park","park","Cnr Bukit Batok East Avenue 2, Bukit Batok East Ave 6, and, Singapore 659761",1.3485421,103.7641994,4.5,3251,"https://www.nparks.gov.sg/contact-us","1800 471 7300"
ChIJ--NsrnAZ2jER-Ry6WJB26Uo,"Tiong Bahru Bakery","cafe","56 Eng Hoon St, #01-70, Singapore 160056",1.2844540000000002,103.83365309999999,4.3,3235,"http://www.tiongbahrubakery.com/","6220 3430"
ChIJUYZa0eYW2jER799TbWPdBpk,"FairPrice Xtra AMK Hub","supplies","53 Ang Mo Kio Avenue 3, #B2-40, AMK Hub, Singapore 569933",1.36953,103.8484398,4.3,3223,"https://www.fairprice.com.sg/","6453 2521"
ChIJG5hWzSFz2jERVitZ5-SQqao,"Perling Mall","mall","3, Persisiran Perling, Taman Perling, 81200 Johor Bahru, Johor Darul Ta'zim, Malaysia",1.4968846999999998,103.68087120000001,4,3207,"https://www.facebook.com/perlingmalls/","07-236 7797"
ChIJIf-M9qAT2jERd0qCLuYmM3E,"888 Plaza","mall","888 Woodlands Drive 50, Singapore 730888",1.438178,103.7955224,4.1,3185,"",""
ChIJczapiXAY2jERyMUTyS6JI8w,"Parkland Green","park|cafe","920 ECP, Singapore 449875",1.2992097,103.90673509999999,4.5,3146,"http://www.nparks.gov.sg/",""
ChIJ_xfz16Ib2jERwahhZCQySeY,"Legendary Classics by Legendary Hong Kong","cafe|mall","10A Rochester Park, Rochester Dr, Singapore 139258",1.3065846,103.7871804,4.6,3145,"https://inline.app/booking/-N5Y84DjtPch9cU5t-oo:inline-live-2/-N5Y84_CKUgVXEUULhxc","9665 2119"
ChIJdVshco0Z2jER5H03m10YGas,"Shaw Centre","mall","1 Scotts Rd, Singapore 228208",1.3062932,103.8318472,4.2,3143,"http://www.shawcentre.sg/","6887 5881"
ChIJX7mN2wwb2jERmHzuEpJh7g8,"Wildseed Café at The Alkaff Mansion","cafe|park","10 Telok Blangah Green, Singapore 109178",1.2788834999999998,103.8131554,4.5,3103,"https://www.wildseedcafe.sg/the-alkaff-mansion","8126 8484"
ChIJK87QRl8b2jER4w0oyVfOi7A,"Burnt Cones Gelato (Sunset Way)","cafe","105 Clementi Street 12, #01-02, Singapore 120105",1.3223786,103.77015329999999,4.7,3092,"http://www.burntcones.com/","9711 1097"
ChIJCwc9Ib0Z2jERGKkaxcJzE0c,"The Cathay","mall","2 Handy Rd, Singapore 229233",1.2995082999999998,103.84777779999999,4.1,3063,"http://thecathay.com.sg/","6337 8181"
ChIJIdel7DsW2jERWep5ioblaeg,"Punggol Park","park","Hougang Ave 10, Singapore 538768",1.3777013999999999,103.89765829999999,4.4,3035,"","1800 471 7300"
ChIJp9nArsUZ2jERhPjbbk1t4Mg,"Brunches Cafe","cafe","96 Rangoon Rd, Singapore 218381",1.3146643999999998,103.8540603,4.7,3033,"http://brunches.sg/","8685 8488"
ChIJT3fdLZwZ2jERJx-QGgPAoac,"Common Man Coffee Roasters - Martin Road","cafe","22 Martin Rd, #01-00, Singapore 239058",1.2918600999999998,103.8384226,4.4,3016,"https://commonmancoffeeroasters.com/?utm_source=google&utm_medium=organic&utm_campaign=gmb_martin_road","6836 4695"
ChIJWZqClhE92jERj-lD2j6Dk04,"Swensen's @ Tampines Mall","mall","4 Tampines Central 5, #03 - 30, Singapore 529510",1.3525814,103.9452074,4.3,3001,"http://www.swensens.com.sg/","6781 5489"
ChIJSX0T2lMQ2jERa6Ixq0d5hkA,"The Rail Mall","mall","Upper Bukit Timah Rd, Fuyong Estate, Singapore 678040",1.3580838,103.7679036,4.1,2981,"http://www.railmall.com.sg/","6507 0180"
ChIJNzPuIxsX2jERCubjluZTnUk,"Canopy Jurong Lake Gardens","cafe|park|mall","70 Yuan Ching Rd, #01-02, Singapore 619675",1.3381889999999999,103.7279994,4.1,2954,"http://www.canopygardendining.com/","6556 1533"
ChIJo7TzxRkV2jERIHtqiVMqOo4,"Oasis Terraces","mall","681 Punggol Dr., Singapore 820681",1.4026300999999999,103.91292469999999,4.3,2952,"https://www.facebook.com/OasisTerraces/",""
ChIJDzdfen4V2jERZlXifr5hQjA,"Xin Yan Korean Live Show BBQ","cafe","500 New Punggol Rd, #01-08, Singapore 828617",1.4208268,103.9123599,4.8,2922,"https://www.xinyan-livehouse.sg/","8901 0108"
ChIJ04fGxckj2jERlkiNn_xBbbM,"Fico","cafe","1300 East Coast Parkway, East Coast Park Area F, Singapore 468964",1.3104434999999999,103.94609229999999,4.5,2911,"https://www.ficomasseria.com/","8121 7208"
ChIJTRUlEvsJ2jERXZwBkeEWloo,"Sunway Big Box Retail Park","mall","Pusat Komersial Sunway Marketplace, Persiaran Medini 6, Sunway City, 79250 Iskandar Puteri, Johor Darul Ta'zim, Malaysia",1.3968783999999999,103.63064759999999,4.3,2907,"https://www.sunwaybigbox.com/","07-533 1333"
ChIJNeTR0Q0Q2jERnbYwtObbn2w,"Haidilao Hot Pot","mall","2 Jurong East Street 21, #03-01 IMM Building, Singapore 609601",1.3347499,103.7463401,4.5,2881,"https://www.superhiinternational.com/sg","6896 4111"
ChIJt7GJ6hAQ2jERDATp0s8ttmg,"Aiman Cafe","cafe","235 Jurong East Street 21, Singapore 600235",1.3399969000000003,103.7422296,4.2,2855,"https://www.instagram.com/aimancafe/",""
ChIJnWBJET2sK4cRT2kJGVbxKEw,"Cosmo Dog Park","park","2502 E Ray Rd, Gilbert, AZ 85296, USA",33.3226413,-111.7350094,4.6,2845,"https://www.gilbertaz.gov/departments/parks-and-recreation/parks-information/parks/cosmo-dog-park","(480) 503-6200"
ChIJRfjvYMkP2jERIzYiCJo-PYo,"Eden | Chinese Garden | Halal-Certified","cafe","70B Yuan Ching Rd, #01-04 Beside Cloud Pagoda, Singapore 619629",1.3398183000000001,103.73076979999999,4.6,2842,"https://edencafe.sg/","9863 0516"
ChIJDVvGO8kZ2jERoThpnZ1p97s,"Chye Seng Huat Hardware","cafe","150 Tyrwhitt Rd, Singapore 207563",1.3116043,103.8603144,4.3,2795,"http://www.cshhcoffee.com/","6299 4321"
ChIJQe8Ik4wZ2jERM78XCNBVhe0,"Forum The Shopping Mall","mall","583 Orchard Rd, Singapore 238884",1.3061667,103.8284991,4,2777,"http://forumtheshoppingmall.com.sg/","6732 2469"
ChIJu_HcsWkT2jERPmZC8IBZG6Q,"Marsiling Mall Hawker Centre","mall","4 Woodlands Street 12, Level 1, Singapore 738623",1.4335076,103.7798639,4.1,2776,"https://www.mysam.sg/index.jsp",""
ChIJ9Tid70cX2jER25wO8UWHTyk,"BYD Zhongshan Park 1826","cafe|mall|park","1 Jln Rajah, #01-02 & 03, Singapore 329133",1.3274816999999999,103.847223,4.7,2757,"https://byd.1826.sg/restaurant/zhongshan-park","8031 5136"
ChIJIx9JFzkb2jERveKPno-5iNo,"Chimichanga Holland Village","cafe","3 Lor Liput, #01-02/03 Holland Piazza, Singapore 277725",1.310808,103.79520409999999,4.6,2738,"https://www.chimichanga.sg/","6974 7186"
ChIJ0WTbHdkZ2jERkBlXk8mf1r0,"Holiday Inn Express & Suites Singapore Novena by IHG","hotel","201 Balestier Rd, Singapore 329926",1.3201291,103.8525169,4.7,2734,"https://www.ihg.com/singapore-singapore?cm_mmc=GoogleMaps-_-EX-_-SG-_-SINOV","6355 9988"
ChIJq5L1VBUZ2jERq4uagSkFzvs,"NekoTown Cat Cafe","cafe","658 Geylang Rd, Singapore 389588",1.3144004,103.8898503,4.9,2717,"https://nekotownsg.com/","8683 4567"
ChIJqXtKrnIT2jER7Gg-cMTC1PE,"Woodlands Mart","mall","768 Woodlands Ave 6, Singapore 730768",1.4454882999999998,103.79799,4.1,2666,"",""
ChIJF75fVaoe2jERZYVUuHEz-lQ,"Capella Singapore","hotel","1 The Knolls, Sentosa Island, Singapore 098297",1.2497222,103.8241667,4.7,2659,"https://www.capellahotels.com/en/capella-singapore?utm_source=google&utm_medium=organic&utm_campaign=gbpcapella_singapore","6377 8888"
ChIJUc1IZYF02jERhI5RZghyMKg,"HutanBandarRini","park","Jalan Persiaran Mutiara Mas, Taman Seri Orkid, 81300 Johor Bahru, Johor Darul Ta'zim, Malaysia",1.5115176000000001,103.632617,4.4,2638,"","017-711 7062"
ChIJBVVBo_EV2jER-jKR3Hy6qUk,"Punggol Waterway Park","park","Sentul Cres, Singapore 821313",1.4111376999999998,103.90446209999999,4.5,2621,"https://www.nparks.gov.sg/contact-us","1800 471 7300"
ChIJV5uSIcZX5okRyUv2LE_uvyA,"The Shops at Evergreen Walk","mall","501 Evergreen Way, South Windsor, CT 06074, USA",41.809448599999996,-72.5561869,4.4,2606,"https://www.theshopsatevergreenwalk.com/","(860) 432-3398"
ChIJL9EqqjAj2jERtpYeN4Ku0CQ,"Stella Seaside Lounge","cafe","11 Changi Coast Walk, Singapore 499740",1.3160615,103.9774041,4.2,2580,"http://www.stella.com.sg/","6214 9168"
ChIJq87uVLMi2jERG__vNYu1YhQ,"FairPrice Bedok North A","supplies","Blk 212 Bedok North Street 1, #01-147, Singapore 460212",1.3259117999999999,103.9315981,4.2,2576,"https://www.fairprice.com.sg/","6443 8038"
ChIJ67mVKpcP2jERmahUvC-ZIwc,"Pioneer Mall","mall","638 Jurong West Street 61, Singapore 640638",1.3418698999999998,103.69738579999999,4,2556,"",""
ChIJl0gztCwU2jEREJMD-bby0iI,"YOUNGS Restaurant & Bar","cafe","3 Hyde Park Gate, Seletar Aerospace Park, Singapore 799531",1.4070942,103.8675995,4.2,2551,"https://www.youngs.com.sg/","8818 3348"
ChIJ3Zrkj1IQ2jER7alm3mrpVPQ,"HillV2","mall","4 Hillview Rise, Singapore 667979",1.363354,103.7643204,4.1,2545,"https://www.fareastmalls.com.sg/hillv2",""
ChIJn3Ph7jXz2TER3CIVJB-F0jQ,"Diamond City Mall","mall","42R3+94R, Jl. Duyung, Tj. Uma, Kec. Lubuk Baja, Kota Batam, Kepulauan Riau, Indonesia",1.1409856999999999,104.00276149999999,4.4,2537,"","(0778) 430761"
ChIJqVUlbe0P2jER-8gqnsq4eNk,"Jurong Central Park","park","Junction off Jalan Boon Lay & Boon Lay Way, Singapore 609961",1.3377938,103.7078525,4.3,2519,"","1800 471 7300"
ChIJRZsLfzs82jERdIDS29tBjQI,"The Coastal Settlement","cafe|park","200 Netheravon Rd, Singapore 508529",1.3889898999999999,103.97780949999999,4.2,2505,"http://www.thecoastalsettlement.com/","6475 0200"
ChIJwwQ3jwET2jERQ7cbQ6ZHDpQ,"Marsiling Market","supplies","20 Marsiling Ln, Singapore 730020",1.4438985,103.7773319,4.2,2436,"https://www.nea.gov.sg/our-services/hawker-management/overview",""
ChIJV1FWhrQX2jERW2niVztAIj8,"Lola's Cafe","cafe","5 Simon Rd, Singapore 545893",1.3616352,103.8859561,4.4,2429,"http://lolascafe.com.sg/","6284 0349"
ChIJK_vZ2qVIzDERetLWIrl9xGg,"The Central Park","park","C-3-1, plaza arkadia, 3, Persiaran Residen, Desa Parkcity, 52200 Kuala Lumpur, Wilayah Persekutuan Kuala Lumpur, Malaysia",3.1864074,101.6283832,4.5,2418,"http://www.desaparkcity.com/centralpark.html","03-6280 8181"
ChIJ1VWOUQ492jERT6ShQTPTOZc,"Sheng Siong Supermarket","supplies","506 Tampines Central 1, #01/02-361, Singapore 520506",1.356115,103.945942,4.3,2401,"https://corporate.shengsiong.com.sg/stores/tampines-central-blk-506/","6636 1713"
ChIJBeQeedc82jERKOSEt_4txsI,"FairPrice Xtra Changi Business Park","supplies","8 Changi Business Park Avenue 1, #01-51 & #02-51, ESR BizPark@Changi, Singapore 486018",1.3351559,103.9634956,4.4,2328,"https://www.fairprice.com.sg/","6604 7548"
ChIJpSi5dd1Ea4gRuCzw2wQQ0l4,"IndyVet Emergency & Specialty Hospital","vet","5425 Victory Dr, Indianapolis, IN 46203, USA",39.7014284,-86.074243,4.1,2271,"http://www.indyvet.com/","(317) 782-4484"
ChIJM6KNREEZ2jEReUM67wofSPU,"Seoul Noodle Shop_Tanglin Mall","mall","163 Tanglin Rd, B1-122 123,124, Singapore 247933",1.305035,103.82384499999999,4.6,2250,"https://www.instagram.com/seoulnoodles_sg/","8410 4680"
ChIJ8Ws24PEa2jEReonyo71rFUo,"Sheng Siong Supermarket","supplies","720 Clementi West Street 2, #01-144, Singapore 120720",1.3023852,103.7637463,4.3,2230,"https://corporate.shengsiong.com.sg/stores/clementi-west-st-2-blk-720/","6773 6212"
ChIJO2p_TiIa2jERYTSzmsYImjw,"Open Farm Community","cafe","130E Minden Rd, Singapore 248819",1.3058298,103.8155908,4.2,2210,"http://www.openfarmcommunity.com/","6471 0306"
ChIJiU9mL2AZ2jER07ZospknPBk,"Old Habits Cafe","cafe","2 Telok Blangah Way, Mt Faber, #01-04 Next to the Swimming Pool, SAFRA, Singapore 098803",1.2771481,103.8175278,4.7,2203,"https://shop.ichefpos.com/store/m6TD6LsV/ordering","8864 3343"
ChIJ0ZnzsXUW2jER9IrUeleR7To,"Sengkang Riverside Park","park","Anchorvale Street, Singapore 544834",1.3993143,103.88487429999999,4.4,2203,"https://pcn.nparks.gov.sg/the-pcn-experience/glossary/","1800 471 7300"
ChIJjXeDH3oU2jERBV22OV1TW9A,"Chong Pang City (Shopping Belt)","mall","Block 126 Yishun Street 11, #01-427, Singapore 760126",1.4305710999999999,103.8272411,4.3,2192,"","6250 6391"
ChIJoQIyOVRt2jERRtVH3wiaP1g,"The FOUNDERS Cafe","cafe","Tiong Nam Tebrau, 45, Jln Tiong Emas, Kawasan Perindustrian Tebrau, 81100 Johor Bahru, Johor Darul Ta'zim, Malaysia",1.5439057999999999,103.7699508,4.4,2171,"https://thefounderscafemy.com/","07-360 9101"
ChIJjXYWi-uJ2TERDRGgEAxYkhw,"One Batam Mall","mall","Teluk Tering, Batam Kota, Batam City, Riau Islands 29444, Indonesia",1.1299957,104.0454475,4.4,2160,"https://www.instagram.com/onebatammall/?hl=en",""
ChIJxzqK6cg92jERB-QagzzIEzs,"Loyang Point","mall","258-259 Pasir Ris Street 21, Singapore 510259",1.3669795,103.96455379999999,4.2,2148,"","6581 2507"
ChIJKXkHO4sX2jERhWTgW68Gs44,"Knots Cafe & Living (Paya Lebar)","cafe","160 Paya Lebar Rd, #01-07 Orion@Paya Lebar, Singapore 409022",1.3293136,103.8901738,4.2,2130,"https://knotscafeandliving.com/","6817 0383"
ChIJ01ysTOgR2jERkczo461Qv5k,"CCK 302 FoodHouse","cafe","302 Choa Chu Kang Ave 4, #01-719, Singapore 680302",1.3849171999999998,103.74338,4.1,2129,"https://m.facebook.com/pages/CCK-302-Foodhouse/381696868933032",""
ChIJmw790WoX2jERJjjK6P2R8ds,"Lazy Lizard - The Promenade","cafe","183 Jln Pelikat, #01-20 The Promenade @ Pelikat, Singapore 537643",1.3550197000000002,103.8873991,4.7,2123,"https://lazylizard.com.sg/","6243 6826"
ChIJI7lMoVkW2jERW5QHvDCXZQw,"Sheng Siong Supermarket","supplies","19 Serangoon North Ave 5, Singapore 554913",1.375548,103.87188300000001,4.2,2120,"https://corporate.shengsiong.com.sg/stores/serangoon-north-blk-19/","6481 1218"
ChIJiep80Utz2jERSGLd3FZuldY,"Auntie Anne's","mall","G46, Ground Floor, Jalan Indah 15/2, 81200, AEON Bukit Indah Shopping Centre, Bukit Indah, Johor Bahru, Bukit Indah, 81200 Johor Bahru, Johor, Malaysia",1.4812243999999999,103.6557715,4.2,2119,"http://www.auntieannes.com.my/","07-237 0837"
ChIJvbE8EoKJ2TERvsr6XQZkUUE,"Lucky Plaza","mall","Lucky plaza, Jl. Imam Bonjol, Lubuk Baja Kota, Kec. Lubuk Baja, Kota Batam, Kepulauan Riau 29444, Indonesia",1.1441785,104.0105354,4.2,2108,"","(0778) 459045"
ChIJpSTYruQV2jER9DFJYSaQ3jY,"FairPrice Finest (Waterway Point)","supplies","83 Punggol Central, #B2-32 Waterway Point, Singapore 828761",1.4064412,103.9020846,4.3,2107,"https://www.fairprice.com.sg/","6385 8959"
ChIJpSUUNq0P2jERckCJMy3euQ4,"Sheng Siong Supermarket","supplies","7 Jurong West Ave 5, #01-01/08, Singapura 649486",1.3488985999999998,103.7034944,4.3,2093,"http://www.shengsiong.com.sg/","6794 2829"
ChIJ9_7w3iQZ2jER7mtoL9cUKdU,"FairPrice Xtra VivoCity","supplies","1 HarbourFront Walk, #01-23 & #B2-23, 1 HarbourFront Walk, #B2-23 VivoCity, Singapore 098585",1.2642274,103.8229442,4.5,2090,"https://www.fairprice.com.sg/","6261 0803"
ChIJXSFR3CbyaS4RDv66pb_F8s4,"Como Park","park","Jl. Kemang Timur No.15 998, RT.1/RW.3, Bangka, Kec. Mampang Prpt., Kota Jakarta Selatan, Daerah Khusus Ibukota Jakarta 12730, Indonesia",-6.2724514,106.8212128,4.6,2089,"","(021) 7197308"
ChIJD865Hw8Q2jERXwifyEiU_Bc,"FairPrice Xtra JEM","supplies","50 Jurong Gateway Road, #B1-21/22 & #B3-01, 50 Jurong Gateway Rd, Jem, Singapore 608549",1.3328361,103.74308889999999,4.3,2089,"https://www.fairprice.com.sg/","6339 1729"
ChIJoXnfqQoM2jERLDnC3nYvoNM,"Mall of Medini","mall","4, Lebuh Medini Utara, 79200 Iskandar Puteri, Johor, Malaysia",1.4281177,103.6331125,4,2086,"http://www.medini.com.my/","07-277 3700"
ChIJl6N0kIgQ2jERi2bx8pudhfU,"EagleWings Loft","cafe|mall|park","9 King Albert Prk, #01-33/34/56/57 KAP Residences Mall, Singapore 598332",1.3370925999999999,103.7794196,4.7,2081,"https://eaglewingsloft.com.sg/","6264 7787"
ChIJQx3YRtIW2jERTHZ7nC044PM,"Lower Peirce Reservoir Park","park","Singapore 573868",1.3720142,103.8257891,4.6,2068,"https://www.nparks.gov.sg/gardens-parks-and-nature/parks-and-nature-reserves/lower-peirce-reservoir-park","1800 471 7300"
ChIJ1cK9-zQZ2jERQDuE_VJrQRY,"Coexist Coffee Co. @Lifelong Learning Institute","cafe","11 Eunos Rd 8, #01-02 Lifelong Learning Institute, Singapore 408601",1.3198865,103.8926179,4.5,2062,"https://www.coexistcoffee.co/",""
ChIJVYEAaEca2jERpxajHtlWFRE,"Sheng Siong Supermarket","supplies","88 Tanglin Halt Rd, #01-10 Commonwealth View, Singapore 141088",1.3014356999999999,103.79838559999999,4.3,2029,"http://www.shengsiong.com.sg/pages/Store-Locator.html","6534 8009"
ChIJV3jnw6YX2jERurNrcbzl9Vs,"FairPrice Xtra NEX","supplies","23 Serangoon Central, #03-42 NEX, Singapore 556083",1.3506852999999999,103.87199109999999,4.3,2025,"https://www.fairprice.com.sg/","6634 4948"
ChIJgVXFIZsZ2jERj9eAUU6fa8g,"Five Oars Coffee Roasters","cafe","6 Upper E Coast Rd, Singapore 455200",1.3123615,103.92552429999999,4.2,2024,"http://focr.sg/","8784 2686"
ChIJP7Cq_sc3zDER68id3Ht_AhA,"Oakwood Hotel & Residence Kuala Lumpur","hotel","222, Jln Ampang, Kampung Datuk Keramat, 50450 Kuala Lumpur, Wilayah Persekutuan Kuala Lumpur, Malaysia",3.1613065,101.7290249,4.3,1998,"https://www.discoverasr.com/en/oakwood/malaysia/oakwood-hotel-residence-kuala-lumpur?utm_source=google&utm_medium=maps&utm_campaign=hq-google-maps-alwayson--all-en-my-my-oakwoodhotelresidencekualalumpur--gbp&--&cid=map::gg::hq:ind:::all:en:my:my:oakwoodhotelresidencekualalumpur:0:gbp:0:::","03-2720 3888"
ChIJPTuSCkUy2jERsdyHLrTt4eY,"Yard & Co.","cafe","Lot4785, Jalan Siakap, Kampung Sungai Rengit, 81600 Pengerang, Johor Darul Ta'zim, Malaysia",1.347435,104.2239831,4.2,1995,"https://www.instagram.com/yardnco?igsh=NjVjbGZ5bTU4cWg3","011-5583 3319"
ChIJLwPRPhc82jER5sczsIGDn4s,"Little Island Brewing Co @ Changi Village","cafe","6 Changi Village Rd, #01-01/02, Singapore 509907",1.3899597,103.9886075,4.4,1963,"http://www.libc.co/","6543 9100"
ChIJHygElBE92jERj7OeMeUomuA,"FairPrice Tampines Mall","supplies","4 Tampines Central 5, #B1 - 12, Singapore 529510",1.3523484,103.944448,4.3,1947,"https://www.fairprice.com.sg/","6786 1953"
ChIJNX0hZdgW2jERAtCfhtkha58,"GRUB Stevens Road","cafe","30 Stevens Rd, #01-06 Novotel @ Stevens, Singapore 257840",1.3136339,103.8286023,4.2,1940,"http://www.grub.com.sg/","8891 9298"
ChIJZbaomiRv2jERSCWS86vyv7k,"Meow Me Cat House","cafe","28-01, Jalan Austin Height 7/7, Taman Mount Austin, 81100 Johor Bahru, Johor Darul Ta'zim, Malaysia",1.5652852,103.77420339999999,4.9,1927,"https://web.facebook.com/meowmecathouse","010-291 9707"
ChIJLVIrvFUF2jERKgyxcADnXm8,"Sheng Siong Supermarket","supplies","3 Yuan Ching Rd, #01-01A/02, Singapura 618642",1.3256306,103.72513909999999,4.3,1927,"http://www.shengsiong.com.sg/","6262 4166"
ChIJD2-oVRwb2jERt-DXYPcnbQs,"Canopy HortPark","cafe|park","33 Hyderabad Rd, #01-01 Hortpark, Singapore 119578",1.2786628,103.80081159999999,4.1,1924,"http://www.canopygardendining.com/","6556 1533"
ChIJ7-fvFXEY2jERF81XESohPJ0,"FairPrice Finest Marine Parade Central","supplies","6 Marine Parade Central, Singapore 449411",1.3014643,103.9071125,4.3,1917,"https://www.fairprice.com.sg/","6348 0826"
ChIJ4U0qJtUtW4YREhItdMww5Z4,"Cedar Bark Park","park","2525 W New Hope Dr, Cedar Park, TX 78613, USA",30.519247900000003,-97.8695645,4.7,1909,"https://www.cedarparktexas.gov/facilities/facility/details/cedarbarkpark-53","(512) 401-5500"
ChIJdR-cZRs92jERlcWm17Xs_oo,"Tampines N2 Shopping Street","mall","208A Tampines Ave 2, Singapore 521208",1.3524446,103.9539669,4.2,1894,"",""
ChIJn_BWwVUS2jERyHkVTD_-_vw,"Marsiling Park","park","Woodlands Centre Rd, Singapore 738930",1.4378367,103.7699507,4.2,1885,"https://www.nparks.gov.sg/contact-us",""
ChIJRzglD-wR2jERgCmyEeAecXI,"Choa Chu Kang Park","park","Choa Chu Kang Dr, Singapore 688845",1.3874864,103.7474293,4.3,1883,"https://www.nparks.gov.sg/gardens-parks-and-nature/parks-and-nature-reserves/choa-chu-kang-park","1800 471 7300"
ChIJv6H9GM0V2jERwDaevQ2lbEs,"Hangar66 Cafe","cafe","66 Seletar Aerospace View, #66 Level 1 WOA Aviation Hangar, 66, Singapore 797509",1.4126938,103.86971860000001,4.6,1860,"https://www.wingsoverasia.com/hangar66-cafe","8711 8677"
ChIJC6Atrw0Z2jERJ8FHIn-pwz0,"Sarnies","cafe","136 Telok Ayer St, Singapore 068601",1.2816389,103.84796940000001,4.1,1854,"http://sarnies.com/","9810 9608"
ChIJAY0ANgsZ2jERaYY81OR8CFc,"FairPrice Chinatown Point","supplies","133 New Bridge Rd, #B1-01, Singapore 059413",1.2857395,103.84528100000001,4.2,1824,"https://www.fairprice.com.sg/","6702 0381"
ChIJnaclKngb2jERIZvtEgenn8w,"Village Hotel Sentosa","hotel","10 Artillery Ave, #02-01 Palawan Ridge, Sentosa Island, Singapore 099951",1.2523958,103.8201982,4.3,1797,"https://www.villagehotels.asia/en/hotels/village-hotel-sentosa?utm_source=googleplaces_vhs&utm_medium=organic","6722 0800"
ChIJoy3rj-sb2jERA_wMVazFAiI,"Labrador Nature Reserve","park","91 Labrador Villa Rd, Singapore 119190",1.2665094,103.80206489999999,4.6,1796,"",""
ChIJMyzw5gYb2jERAVsDQLe7XYY,"Les Bouchons Rochester","mall","10 Rochester Park, Rochester Commons, Singapore 139221",1.3062487000000003,103.7876014,4.6,1776,"http://www.lesbouchons.sg/","6904 8972"
ChIJl_sOMpIZ2jERxRthBVZ5gyc,"PS.Cafe Paragon","cafe","290 Orchard Rd, #03-41/42 Level 3 Paragon, Singapore 238859",1.3036235000000003,103.83549339999999,4.2,1770,"https://www.pscafe.com/pscafe-at-paragon/?utm_source=google&utm_medium=organic&utm_campaign=gmb","6708 9288"
ChIJV7Z0bwYa2jER98QDzqfnkgE,"Atlas Coffeehouse","cafe","6 Duke's Rd, Singapore 268886",1.3230716999999999,103.81205240000001,4.2,1768,"http://www.atlascoffeehouse.com.sg/","6314 2674"
ChIJaWh-cCwV2jERSnTOal0Uj8M,"Junction Nine","mall","18 Yishun Ave 9, Singapore 768897",1.4331479999999999,103.8417427,4.1,1766,"https://junctionnine.sg/","6255 0717"
ChIJiRtqBgBz2jER6Wb2i4wwGlA,"As Clouds Cafe","cafe","18, Jalan Nakhoda 2, Taman Ungku Tun Aminah, 81300 Skudai, Johor Darul Ta'zim, Malaysia",1.5194330999999999,103.6603217,4.7,1748,"https://www.instagram.com/ascloudscafe/","014-614 1491"
ChIJ49r4CJuJ2TERlT_lxBbYVdY,"King’s Hotel Batam","hotel","Jl. Yos Sudarso, Kp. Seraya, Atas, Kota Batam, Kepulauan Riau 29444, Indonesia",1.1430034999999998,104.0223118,4.2,1740,"http://kingshotelbatam.com/","(0778) 430003"
ChIJ06trnJ8Z2jER3VsVGTjhp-8,"Kim's Dental Clinic","vet","50 East Coast Road 03-13 Roxy Square II, Singapore 428769",1.3031975,103.9048694,4.9,1729,"https://kimsdental.clinic/","8809 7625"
ChIJjYoaR6MT2jERjqCl51o86Lw,"Superpets @ Vista Point (Woodlands)","supplies|mall|groomer","Blk 548 Woodlands Drive 44, #01-15 Vista Point, Singapore 730548",1.431034,103.79365949999999,4.1,1727,"https://www.superpets.sg/","9367 7774"
ChIJ05NMhO0N2jERKBZ8XnUBay8,"Bollywood Farms Pte Ltd","cafe","100 Neo Tiew Rd, Singapore 719026",1.4184872,103.7165168,4.3,1716,"https://bollywoodfarms.com/","6898 5001"
ChIJ_6g8kisX2jERaGrSixd_xbM,"Windsor Nature Park","park","30 Venus Dr, Singapore 573858",1.3566265,103.8214319,4.6,1710,"https://www.nparks.gov.sg/contact-us","1800 471 7300"
ChIJeaoMKbU92jERRVPqPC2m72M,"Civil Service Club @ Loyang (Former Aloha Loyang)","hotel|park","159W Jln. Loyang Besar, Singapore 507020",1.3803679,103.9620131,4.2,1702,"https://www.cscloyang.sg/","6581 9033"
ChIJ7Qtmf-Jt2jERS3f9BoobtBo,"Adda Heights Town Park","park","Jln Adda 2/4, Adda Heights, 81100 Johor Bahru, Johor Darul Ta'zim, Malaysia",1.5514385,103.74343449999999,4.5,1695,"","016-220 5721"
ChIJ2QcVw3UZ2jEREjm88AVOKQ4,"Sheng Siong Supermarket","supplies|vet","52 Chin Swee Rd, #01-25, Singapore 160052",1.2869709999999999,103.8417616,4.2,1694,"http://www.shengsiong.com.sg/","6535 0401"
ChIJjc3w5NYb2jERb8RCUEfkBuo,"FairPrice Bukit Merah Central","supplies","166 Bukit Merah Central, #01-3531, Singapore 150166",1.282769,103.81767769999999,4.2,1694,"https://www.fairprice.com.sg/","6273 4325"
ChIJ59JC2zAR2jERBRxd5jtZKL8,"Upper Peirce Reservoir Park","park","Along Old Upper Thomson Road, Singapore",1.3731053,103.8119088,4.6,1692,"",""
ChIJBRTle6ke2jERAykxAgtBm68,"FOC by the Beach","cafe","110 Tanjong Beach Walk, Singapore 098943",1.2467880999999998,103.82497649999999,4.2,1669,"http://focbythebeach.com/","6206 5815"
ChIJ9xHtJIA3zDERLkzVo8PABJ4,"Monster. A Garden Cafe","cafe","No. 54, 1st Floor, Jalan Sultan, City Centre, 50000 Kuala Lumpur, Wilayah Persekutuan Kuala Lumpur, Malaysia",3.1434378,101.6985584,4.5,1664,"https://instagram.com/monster.a.garden.cafe.kl?utm_medium=copy_link","012-554 8429"
ChIJjyf3EsIP2jER-6PJOuQZ2po,"Boon Lay Shopping Centre","mall","221 Boon Lay Pl, Singapore 640221",1.3462075999999998,103.7124343,4.3,1652,"",""
ChIJ-7osLNMV2jERw6EQa8xZlkM,"The Summerhouse","cafe","3 Park Ln, Singapore 798387",1.4079871,103.86831339999999,4.3,1652,"http://www.thesummerhouse.sg/","8809 5840"
ChIJN0XW2Y0a2jERQ9xu1Nm4Rkw,"FairPrice Clementi A (Blk 451)","supplies","451 Clementi Ave 3, #01-307, Singapore 120451",1.3127067,103.76569359999999,4.2,1632,"https://www.fairprice.com.sg/","6774 3663"
ChIJAQAA0BgO2jER_xWW91J7DYw,"Qian Hu Fish Farm","supplies","71 Jln Lekar, Singapore 698950",1.385036,103.72165799999999,4.2,1624,"https://qianhudiscover.com/","6766 1554"
ChIJmUOGncMZ2jERODwVxAaMAIY,"Kings Cart Coffee Factory","cafe","328 Joo Chiat Rd, #01-05, Singapore 427585",1.3090864,103.9023852,4.6,1623,"https://www.kingscartcoffee.com/joo-chiat-menu","8814 8445"
ChIJY3E5sAI92jER_fY5uKZt2Bc,"Tampines Mart","mall","Tampines Street 32, Singapore 529287",1.3539206,103.95989259999999,4.1,1621,"","6789 7772"
ChIJsYxQUPwV2jERyrhmjB7DGRc,"Sheng Siong Supermarket","supplies","Blk 301 Punggol Central, #01-01, Singapore 820301",1.4037663,103.9062885,4.2,1612,"https://corporate.shengsiong.com.sg/stores/punggol-central-blk-301/","6484 6582"
ChIJPwriazYQ2jER8tcEv-XxROQ,"Bukit Gombak Neighbourhood Centre","mall","373 Bukit Batok Street 31, Singapore 650373",1.3586192,103.75046239999999,4.3,1610,"",""
ChIJNb9l1tgZ2jERSGU3yVr2O9Y,"Herschel Tangs Plaza","mall","320 Orchard Rd, Singapore 238865",1.3049776,103.8330376,4.4,1602,"","6737 5500"
ChIJYR6HCJ4Z2jERxLqTs3bEj_Q,"Boomarang Bistro & Bar","cafe","60 Robertson Quay, #01-15 The Quayside, Singapore 238252",1.2897222,103.8388889,4,1590,"http://www.boomarang.com.sg/","6738 1077"
ChIJ_W4jlTUX2jERTsCj3jMn0tM,"Lazy Lizard Flora Vista","cafe","7 Ang Mo Kio Street 66 #01-09 & #01-12, Flora Vista, Singapore 567708",1.3916463000000001,103.850521,4.7,1589,"https://lazylizard.com.sg/","6363 9789"
ChIJlU1sIyYV2jERZ_plMDpdCcU,"Charcoal Mookata 1018 Sembawang - The Addiction Bistro","cafe","1018 Sembawang Rd, Singapore 758495",1.4533182000000002,103.8323377,4.8,1584,"https://social.quandoo.com/en/groups/The%20Addiction%20Bistro",""
ChIJkQR7C28U2jERWkPSjhSX7Rk,"FairPrice Northpoint City","supplies","1 North Point Drive, South Wing, B2-103/104/105/106/107 Northpoint City, Singapore 768019",1.4283237,103.83614829999999,4.3,1581,"https://www.fairprice.com.sg/","6481 3420"
ChIJGzodYQYR2jERBKbEaoMOfg8,"Chestnut Nature Park","park","Chestnut Ave, Singapore 679514",1.3760246,103.7810719,4.5,1569,"https://www.nparks.gov.sg/contact-us","1800 471 7300"
ChIJZ82iIGIQ2jERmsBNVdH2nQw,"Carpenter & Cook","cafe","19 Lor Kilat, #01-06, Singapore 598120",1.3409251,103.7735412,4.4,1553,"https://www.carpenterandcook.com/","6463 3648"
ChIJebkYhsYb2jERCaQ8kXH-hi8,"Handlebar","cafe","10 Lock Rd, Singapore 108938",1.2787241999999999,103.8043905,4.4,1551,"https://handlebaroriginal.com/","6268 5550"
ChIJTe_Wkp0Z2jER207m3YBLy98,"Toby's Estate Coffee Roasters Singapore","cafe","8 Rodyk St, Singapore 238216",1.2899494,103.8373996,4.1,1529,"http://tobysestate.com.sg/","9177 3256"
ChIJkwE2YIoZ2jER4hA3bvwi1Cs,"Nassim Hill Bakery Bistro Bar","cafe|mall","56 Tanglin Rd, #01-03, Singapore 247964",1.3056534,103.8231134,4.2,1526,"http://www.nassimhill.com.sg/","9099 6405"
ChIJm9KFDLYX2jERN1XbqljUv_A,"The Pup Life SG","supplies|mall|groomer","496 MacPherson Rd, Singapore 368201",1.3321353,103.8834526,5,1524,"http://www.thepuplife.sg/","8802 2124"
ChIJxUOYG7Mi2jERXAvFIJ8W2pM,"FairPrice Finest Bedok Mall","supplies","311 New Upper Changi Road B2, #60, Singapore 467360",1.3244384,103.9286889,4.3,1522,"https://www.fairprice.com.sg/","6844 9846"
ChIJY4MaLY4a2jERIzLyNGQ4E0c,"FairPrice Finest The Clementi Mall","supplies","3155 Commonwealth Ave W, B1-12/13/14 The Clementi Mall, Singapore 129588",1.3151720999999998,103.7642079,4.1,1521,"https://www.fairprice.com.sg/","6659 4437"
ChIJqbv38DoX2jERePtksDQYuM8,"Columbus Coffee Co.","cafe","220 Upper Thomson Rd, Singapore 574352",1.3529,103.8354207,4.2,1502,"http://columbuscoffeeco.com/","6253 6024"
ChIJm03XszAY2jERgzoldDmXeqw,"Sheng Siong Supermarket","supplies","301 Geylang Road, Lor 15 Geylang, #01-02, Singapore 389344",1.3127734,103.87865199999999,4.3,1499,"https://corporate.shengsiong.com.sg/","6846 1766"
ChIJkS4WOzA92jERQ5_fAGVwalg,"Advanced VetCare Veterinary Centre (Bedok) - 24Hrs Vet Clinic","vet","26 Jln Pari Burong, Singapore 488692",1.3336881,103.94872199999999,4.3,1498,"https://www.advancedvetcare.sg/","6636 1788"
ChIJc_Mb540Z2jER3abFOZEI33A,"DAISO @ ION Orchard","supplies","2 Orchard Turn, #B4-47 ION Orchard, Singapore 238801",1.303439,103.831949,4.3,1492,"http://www.daisosingapore.com.sg/","6634 7801"
ChIJPcRVfySK2TERWgYx2Kf9gu8,"Morning Bakery (Harbour Bay)","cafe","Harbour Bay, Jl. Duyung, Sungai Jodoh, Kec. Batu Ampar, Kota Batam, Kepulauan Riau 29433, Indonesia",1.1529108,103.9996571,4.2,1488,"","(0778) 7415006"
ChIJLZ9oWoEZ2jERwxPWGD_Zpnw,"Valley Point Shopping Centre","mall","491 River Valley Rd, Singapore 248371",1.2933440999999999,103.8271408,4,1486,"https://www.valleypoint.com.sg/","6737 5523"
ChIJyZ4g7KUZ2jERap2fFAXE3a8,"South Beach Avenue","mall","26 Beach Rd, Singapore 189768",1.2942384,103.8557517,4.4,1484,"https://southbeach.sg/","6672 5722"
ChIJW_KnqCcZ2jERXjsDwmKxJHY,"Tiong Bahru Bakery","cafe","70 River Valley Rd, #01-05 Foothills Fort Canning, Singapore 179037",1.2923839,103.8456343,4.4,1483,"https://www.tiongbahrubakery.com/","6877 4865"
ChIJfzScMi0R2jERRac6PODZUz8,"DON DON DONKI Jem","supplies","50 Jurong Gateway Road Jem, #02-24/26 & #03-27/29, Singapore 608549",1.3326613999999999,103.74322289999999,4.3,1480,"","6694 1011"
ChIJ0SntIg492jERE_keRMzcvlc,"DAISO @ Tampines 1","supplies","10 Tampines Central 1, #03-17, Singapore 529536",1.3545417000000002,103.9449899,4.3,1477,"http://www.daisosingapore.com.sg/","6785 1179"
ChIJ9-LvLMc92jEROE9atx0KsEM,"georges @ The Cove","cafe|park","133 Pasir Ris Rd, Singapore 519149",1.3849957,103.94483849999999,4.2,1462,"http://georges.com.sg/","6585 0535"
ChIJY5BykofZQIYRPsFf6szt-A0,"Congressman Bill Archer Dog Park","park","3201 Hwy 6, Houston, TX 77084, USA",29.816841,-95.6468818,4.7,1460,"https://cp4.harriscountytx.gov/dogparks","(281) 353-8100"
ChIJr_uWXrEb2jERw4hpdv17mZc,"Kent Ridge Park","park","Vigilante Dr, Singapore 118176",1.2838851999999998,103.79129449999999,4.6,1452,"https://www.nparks.gov.sg/gardens-parks-and-nature/parks-and-nature-reserves/kent-ridge-park","1800 471 7300"
ChIJJeg_k0oY2jER3tyt8xkYb9M,"Kallang Riverside Park","park","Cnr Kallang Road and, Crawford St, Singapore 397732",1.3070353,103.86828489999999,4.5,1449,"https://www.nparks.gov.sg/visit/parks/park-detail/kallang-riverside-park/","1800 471 7300"
ChIJjWEM0X4Z2jER_GFbcVs_brU,"FairPrice Finest Tiong Bahru Plaza","supplies","302 Tiong Bahru Rd, #B1-122, Singapore 168732",1.2866476999999998,103.82663210000001,4.1,1448,"https://www.fairprice.com.sg/","6270 0913"
ChIJl4mMAFs92jERKIHPBGU34EE,"Sheng Siong Supermarket","supplies","739A Bedok Reservoir Rd, #01-01, Singapore 471739",1.3380859999999999,103.9232933,4.3,1446,"http://www.shengsiong.com.sg/","6447 8669"
ChIJq3UOAYQW2jER_JM6imgS3ds,"Mobile Pet Cremation Services Pte Ltd","vet","59 Sungei Tengah Rd, #01-58 The Animal Lodge Blk W, Singapore 699014",1.3818605,103.72395589999999,5,1441,"https://www.mobilepetcremation.com.sg/","9455 6355"
ChIJcRNpHFwR2jERYHKod6yVMM0,"Upper Seletar Reservoir Park","park","Mandai Rd Track 7, Singapore",1.3998530999999999,103.8069379,4.6,1438,"",""
ChIJR9HlRHIY2jERWtlEAWf1SsA,"Hotel Indigo Singapore Katong by IHG","hotel","86 E Coast Rd, Singapore 428788",1.304903,103.904574,4.6,1429,"https://www.ihg.com/hotelindigo/hotels/us/en/singapore/sinki/hoteldetail?cm_mmc=GoogleMaps-_-IN-_-SG-_-SINKI","6723 7001"
ChIJ7wUeK1sW2jER6JIwsfXKGDc,"FairPrice Xtra (Hougang 1)","supplies","1 Hougang Street 91, #02-01 Hougang 1, Singapore 538692",1.3758021,103.8794307,4.2,1418,"https://www.fairprice.com.sg/","6881 0013"
ChIJWXaBe7QZ2jEROU9dj9KzdPY,"BistrOne36 at Boon Keng","cafe","34 Whampoa W, #01-79 Bendemeer Ville, Singapore 330034",1.3199539,103.8625038,4.6,1416,"https://bistrone36.co/","6291 8110"
ChIJWS_ODfizJIgRLllxWOSmiGM,"Pet Supplies Plus Livonia","supplies","29493 7 Mile, Livonia, MI 48152, USA",42.4264995,-83.33724149999999,4.5,1411,"https://www.petsuppliesplus.com/Store/MI/Livonia/Livonia/44","(248) 615-0039"
ChIJKS9S8goZ2jERFMO0loxJRYs,"Fangko House","cafe","68 S Bridge Rd, #01-01, Singapore 058698",1.2872892,103.84806359999999,4.7,1410,"","9231 8849"
ChIJ__9PjI4a2jERQzmi2GNknrs,"Clementi Florist & Aquarium (C328)","supplies","Blk 328 Clementi Ave 2, #01-210, Singapore 120328",1.3139144000000003,103.7670701,4.5,1410,"https://m.facebook.com/pages/Clementi-Florist-Aquarium-C328/1100726010104689","6777 8468"
ChIJefF2pmIW2jER3VyrtsTcC88,"Nanyang Trading Aquarium","supplies","8 Chencharu Link, Singapore 768045",1.4142739,103.8240496,4.1,1405,"","6484 1365"
ChIJB8Ji9qAT2jERQ7rAMzXX9cY,"FairPrice Woodlands 888","supplies","888 Woodlands Drive 50, #01-757 888 Plaza, Singapore 730888",1.4386406999999999,103.7953453,4.2,1398,"https://www.fairprice.com.sg/","6368 7756"
ChIJ_xnxVaMR2jERK7dnPmCBqqc,"FairPrice Hillion Mall","supplies","17 Petir Rd, #B2-67, Singapore 678278",1.378531,103.7632107,4.3,1375,"https://www.fairprice.com.sg/","6769 4868"
ChIJHaUWr-cW2jERstdKhQxFrD0,"FairPrice Finest Ang Mo Kio","supplies","712 Ang Mo Kio Ave 6, #01-4056, Singapore 560712",1.3714264,103.8471053,4.1,1369,"https://www.fairprice.com.sg/","6844 4550"
ChIJWbZRQQAZ2jERS5HSArJbi1U,"Bites & Brews","cafe","15 Crane Rd, Singapore 429360",1.3123019999999999,103.8988459,4.8,1362,"https://www.bitesandbrews.life/","8815 9615"
ChIJVT30pVgZ2jERp_bsznq2oBo,"TANGS at VivoCity","supplies","1 HarbourFront Walk, #01-187 & #02-189 VivoCity, Singapore 098585",1.2644640999999999,103.8214718,4.3,1362,"https://www.tangs.com/","6303 8688"
ChIJwSA3Jkoa2jERuxc4pjh3_Ug,"Colbar","cafe","9A Whitchurch Rd, Singapore 138839",1.2938071,103.7964379,4.1,1349,"https://m.facebook.com/pages/ColBar/179635178727085","6779 4859"
ChIJbYmXlrkX2jERxTzYlbPJ5hM,"Lickers","cafe","124 Hougang Ave 1, #01-1446, Singapore 530124",1.3529065,103.88671509999999,4.3,1333,"http://lickers.com.sg/",""
ChIJ4x7T1k8rjIgRm6RCO04H2qw,"Precision Grooming Spa SUPERSTORE Montgomery on Eastdale Circle","groomer","3518 Eastdale Cir, Montgomery, AL 36117, USA",32.3836024,-86.2021927,4.9,1332,"https://booking.moego.pet/ol/landing?name=PrecisionGroomingSpaLLC","(334) 655-1519"
ChIJf7-nelA92jERV0jVMjWeteQ,"Bedok Town Park","park","Bedok North Ave 3, Singapore 469724",1.3354072,103.9256192,4.3,1327,"https://www.nparks.gov.sg/contact-us","1800 471 7300"
ChIJIbGU73sU2jERDA_nKBo4-oc,"Sheng Siong Supermarket","supplies","845 Yishun Street 81, #01-186, Singapore 760845",1.4160595999999999,103.834869,4.2,1310,"http://www.shengsiong.com.sg/","6755 7383"
ChIJib0vKmUW2jER0CZH8XG4jno,"FairPrice Finest (The Seletar Mall)","supplies","33 Sengkang W Ave, #B2 - 24, Singapore 797653",1.3911822999999999,103.8760126,4.2,1309,"https://www.fairprice.com.sg/","6341 6177"
ChIJe8Ja3KoX2jERKEYSa1KwuYs,"Sun Ray Cafe","cafe|mall|park","79 Brighton Cres, Singapore 559218",1.3631681999999998,103.8713049,4.2,1303,"https://www.sunray.sg/","8909 8458"
ChIJd3ekBmZr2jER1ZFbOA9ViY0,"Eco-Shop @ Masai","supplies","LS 1B, U Sentral Masai PTD163160, Jalan Serangkai 1, Taman Bukit Dahlia, 81700 Pasir Gudang, Johor Darul Ta'zim, Malaysia",1.4853557,103.8903224,4.2,1303,"http://www.eco-shop.com.my/","07-283 0123"
ChIJcf_SpPk82jERM28p3SYNBnI,"Refuel Cafe","cafe","744 Bedok Reservoir Rd, #01-3029 Reservoir Village, Singapore 470744",1.3375188999999998,103.9213226,4.2,1302,"http://refuel.sg/","6448 0015"
ChIJ_TyD6vc82jERTi4z_YRalVg,"The Bark Cafe","cafe|mall|park","1000 Upper Changi Rd N, Singapore 507707",1.3622362,103.97382619999999,4.1,1300,"","8281 2125"
ChIJ8fQ455jeQIYRkyebEkDWMcU,"Millie Bush Dog Park","park","16101 Westheimer Rd, Houston, TX 77082, USA",29.726559299999995,-95.6686648,4.7,1296,"https://cp4.harriscountytx.gov/dogparks","(281) 353-8100"
ChIJZ23kXCI92jER6qNrGbIFDVE,"FairPrice Eastpoint Mall","supplies|mall","3 Simei Street 6, #05-01 Eastpoint Mall, Singapore 528833",1.3427145,103.9530415,4.2,1296,"https://www.fairprice.com.sg/","6786 0985"
ChIJs5FVJhIX2jER7efvOK7ObVM,"The Woodleigh Mall","mall","11 Bidadari Park Dr, Singapore 367803",1.3386593000000002,103.87176889999999,4,1288,"https://www.thewoodleighmall.com/","6320 0129"
ChIJm-22KpwZ2jERHav69tu9J48,"The Book Cafe","cafe","20 Martin Rd, #01-02 Seng Kee Building, Singapore 239070",1.2912086,103.83895419999999,4.3,1276,"https://www.thebookcafesg.com/","6887 5430"
ChIJ7cjSMX0T2jERRJiMb6Q0fvY,"FairPrice Sun Plaza","supplies","30 Sembawang Dr, #B1-01 / 02 Sun Plaza, Singapore 757713",1.4481787,103.8194632,4.1,1276,"https://www.fairprice.com.sg/","6844 4550"
ChIJPYQkQrcb2jER2H0KrdqxUTs,"Botanico at The Summerhouse","cafe","3 Park Ln, Level 2 The Summerhouse, Singapore 798387",1.408043,103.86832179999999,4.5,1275,"https://www.botanico.sg/","8809 5840"
ChIJmeiLQaQZ2jER9DiO9-UvS5w,"Glasshouse","cafe","30 Victoria St, #01-03 CHIJMES, Singapore 187996",1.2954378,103.8522782,4.3,1266,"http://theglasshousesg.com/","8803 9461"
ChIJLx3B02cVrjsRoik-WW8W0Lk,"The Pet People Cafe","cafe","19th Main Rd, Sector 4, HSR Layout, Bengaluru, Karnataka 560102, India",12.912485799999999,77.6444174,4.7,1264,"http://www.thepetpeoplecafe.com/","099007 03009"
ChIJVcXun8gZ2jER90s2kBbgN3E,"FairPrice City Square Mall","supplies","180 Kitchener Road, Mall, B1-09/10 City Square, Singapore 208539",1.3113982,103.8565897,4.3,1260,"https://www.fairprice.com.sg/","6509 6260"
ChIJF-ddtVIS2jERcC3gBIn-uA8,"Sheng Siong Supermarket","supplies","301 Woodlands Street 31, #01-217, Singapore 730301",1.4314699,103.77377779999999,4.2,1260,"https://corporate.shengsiong.com.sg/stores/woodlands-st-31-blk-301/","6362 3061"
ChIJ-RPjNLQe2jERA1utzj7rV3I,"Gin Khao Bistro","cafe","31 Ocean Way, #01-12 Quayside Isle, Singapore 098375",1.2468982,103.8421771,4.6,1251,"http://www.ginkhao.com.sg/","6570 2208"
ChIJUXL7KbcZ2jERMd4ovMuRAYg,"Twenty Grammes Cafe","cafe","753 N Bridge Rd, Singapore 198721",1.3032958,103.8592717,4.2,1250,"http://www.twentygrammes.com/","9447 2020"
ChIJHbKxhboZ2jEROFG6e1zb8Hc,"CS Fresh","supplies","200 Victoria Street, #B1-17/18, Bugis Junction, Singapore 188024",1.2999361999999999,103.85600579999999,4.2,1249,"https://coldstorage.com.sg/","6891 8100"
ChIJLwlG8oCK2TER7xZM_Ndxa78,"Hypermart - Mega Mall Batam Centre","mall","Jl. Engku Putri No.1, Tlk. Tering, Kec. Batam Kota, Kota Batam, Kepulauan Riau, Indonesia",1.1291959,104.0558535,4.4,1246,"http://www.hypermart.co.id/","(0778) 470199"
ChIJxReAmQsQ2jER1xcXA-UrvbQ,"Lifestylemart @ THE CHEVRONS","mall","48 Boon Lay Wy, #02-10, Singapore 609961",1.3310229999999998,103.7481535,4.3,1240,"https://sgemartinfo.com/","6862 5600"
ChIJN3ZA3d1q2jERqZKmO90qleM,"Grumpy Goat & Friends Forest Feast Cafe","cafe","Gravity Green (Next to Family Mart GL1, Jln Suria, Bandar Baru Seri Alam, 81750 Masai, Johor Darul Ta'zim, Malaysia",1.4958741,103.8732241,4.3,1239,"https://www.facebook.com/GrumpyGoatAndFriends/","017-891 1366"
ChIJZZ7n9ksY2jERKPlSbXTnoNY,"FairPrice Xtra Sports Hub","supplies","1 Stadium Pl, #01 - 29, Singapore 397628",1.3034495,103.8730109,4.3,1238,"https://www.fairprice.com.sg/","6702 7281"
ChIJ2zKcVvgV2jERBUF__KyDaws,"Northshore Plaza I","mall","407 Northshore Dr, #1 Northshore Plaza, Singapore 820407",1.4171246,103.9017228,4.2,1238,"https://www.facebook.com/NorthshorePlazaSG","6970 0269"
ChIJq93BHIkQ2jEReDU1CrhkeOg,"FairPrice Finest Bukit Timah Plaza","supplies","1 Jln Anak Bukit, #B1-01 & #B2-01, Bukit Timah Plaza, 1 Jalan Anak Bukit, Singapore 588996",1.3382155999999998,103.77827579999999,4.4,1237,"https://www.fairprice.com.sg/","6468 8415"
ChIJTW4fr5wT2jEReGufQu0QfWQ,"Vista Point","mall","548 Woodlands Drive 44, Singapore 730548",1.4313837,103.7938289,4.2,1227,"","8803 7876"
ChIJfybIpT0Q2jER6RorLl-26FU,"Sheng Siong Supermarket","supplies","154A Bukit Batok West Ave. 8, #01-01 Stall #1, Singapore 651154",1.3474062999999998,103.7436727,4.2,1223,"http://www.shengsiong.com.sg/","6899 0013"
ChIJ-f__r6oR2jER5UiO6z8HpQM,"Dairy Farm Nature Park","park","100 Dairy Farm Rd, Singapore 679057",1.3640181999999998,103.7763968,4.5,1220,"","1800 471 7300"
ChIJVxm66kmJ2TERBeH14DUzxpM,"Anchor Cafe & Roastery","cafe","Dermaga Culinary Paradise RF No. 11, Sukajadi, Kec. Batam Kota, Kota Batam, Kepulauan Riau 29444, Indonesia",1.1071016999999999,104.0291893,4.5,1189,"https://www.facebook.com/anchorcafeandroastery/","0812-7070-2210"
ChIJH8LySQkZ2jERFAGAVveJaA0,"Little Farms Bistro, Katong Point (Restaurant)","cafe","451 Joo Chiat Rd, #01-04, Singapore 427664",1.3069216,103.9045661,4.6,1175,"https://littlefarmscafe.com/pages/little-farms-katong-point-bistro","3163 7958"
ChIJUXhrN6MR2jER7xtwryUocpY,"FairPrice Finest","supplies","1 Jelebu Rd, #01-15 & #02-20 Bukit Panjang Plaza, Singapore 677743",1.3800078999999998,103.7642894,4.3,1175,"https://www.fairprice.com.sg/","6762 8876"
ChIJAz309bET2jERjtPg35MXQxA,"FairPrice Finest The Woodgrove","supplies","30 Woodlands Ave 1, #01-11 The Woodgrove, Singapore 739065",1.42895,103.781124,4.3,1170,"https://www.fairprice.com.sg/","6893 1203"
ChIJs5CBlukR2jERTIOWORf5ceI,"FairPrice Lot 1 Shoppers' Mall","supplies","21 Choa Chu Kang Avenue 4, #B1-03, Lot, one, Singapore 689812",1.3852086,103.7449371,4,1170,"https://www.fairprice.com.sg/","6766 5009"
ChIJ62U-NzUZ2jERplUHJgaboqM,"Surrey Hills Grocer - VivoCity (Pet Friendly)","cafe|mall","1 HarbourFront Walk, #03-02 VivoCity, Singapore 098585",1.2643963,103.8225901,4.7,1168,"https://www.surreyhillsgrocer.sg/","8189 6392"
ChIJZVxhVDsZ2jERaRXJqklVqHI,"Mondrian Singapore Duxton","hotel","16A Duxton Hl, 16A, Singapore 089970",1.2787133,103.84265459999999,4.3,1165,"https://mondrianhotels.com/singapore-duxton/?utm_source=google&utm_medium=organic&utm_campaign=gmb-website&utm_content=website_button","6019 8888"
ChIJpwkngngZ2jERWh7XDFzVAhI,"Jypsy Parkland Green","cafe","920 ECP, #01-25/26/27, Singapore 449875",1.2985343000000003,103.9062328,4.5,1163,"https://www.pscafe.com/jypsy-parkland-green/?utm_source=google&utm_medium=organic&utm_campaign=gmb","6708 9288"
ChIJmcFNnAOJ2TERDyTEs0ssgTU,"Lotte Grosir Batam","supplies","Jl. Engku Putri Utara, Tlk. Tering, Kec. Batam Kota, Kota Batam, Kepulauan Riau 29444, Indonesia",1.1313524,104.04898980000002,4.2,1163,"","(0778) 4803800"
ChIJ0UYNcDtt2jERwqdx6-al6R8,"Fifty Trees","cafe","53, Jln Beringin, Taman Melodies, 80250 Johor Bahru, Johor Darul Ta'zim, Malaysia",1.4908432,103.76204729999999,4.2,1163,"http://www.facebook.com/fiftytrees53","07-338 4150"
ChIJTRAkJcMb2jERn2_5B9Y0kRc,"Bedrock Origin - Steakhouse @ Sentosa","cafe","Oasia Resort Sentosa Hotel, 23 Bch Vw Rd, #01-02 Palawan Ridge, Singapore 098679",1.2531961,103.8194919,4.7,1162,"http://www.bedrock.com.sg/","6818 3333"
ChIJhx2kCUwX2jERmOFucibXbRo,"PetCubes","supplies","4 Defu South Street 1 #03-15, Lift, Lobby J Defu Industrial City, Singapore 533756",1.3426968,103.89710129999999,4.9,1160,"https://www.petcubes.com/?utm_source=gmb&utm_medium=organic","9632 6855"
ChIJAzVH2rXnaC4RLMbFBnW-d9A,"Pet Park","park","Jl. Cilaki, Cihapit, Kec. Bandung Wetan, Kota Bandung, Jawa Barat 40114, Indonesia",-6.9048364,107.6267494,4.3,1156,"",""
ChIJR9HlRHIY2jER9RAgYi5Pqbs,"Katong Square","mall","E Coast Rd, #86-88, Singapore 428788",1.3048285,103.9045422,4,1154,"http://katongsquare.com.sg/","6387 6337"
ChIJa_6xD8IP2jERC2e3Q6mjwyg,"FairPrice Boon Lay Shopping Complex","mall|supplies","221 Boon Lay Pl, #02-200, Singapore 640221",1.3466339999999999,103.71203919999999,4.3,1152,"https://www.fairprice.com.sg/","6264 0398"
ChIJWw4PRBMZ2jER3Tbehb4Jiyo,"DAISO & THREEPPY @ Plaza Singapura","supplies","68 Orchard Rd, #05-01/02 03 Plaza, Singapore 238839",1.3005679,103.8452317,4.4,1151,"http://daisosingapore.com.sg/","6884 9210"
ChIJvxf3xdEW2jERsTZEutKUH8k,"Thus Coffee","cafe","4 Jln Kuras, Singapore 577723",1.372699,103.8295148,4.5,1141,"http://www.thuscoffee.com/","9363 6380"
ChIJQ8QhrXsZ2jERQlp3QVnlFz4,"Plain Vanilla Tiong Bahru","cafe","1D Yong Siak St, Singapore 168641",1.2823480999999999,103.83052029999999,4.2,1139,"https://www.plainvanilla.com.sg/","8363 7614"
ChIJre8p_MoW2jERJBGKw1MsdbY,"Thomson Nature Park","park","Upper Thomson Rd, Singapore",1.3833292,103.8219469,4.5,1137,"","1800 471 7300"
ChIJ7SFiPucZ2jERvpZCd32Eeyo,"Two Men Bagel House Novena","cafe","103 Irrawaddy Rd, #01-04 Royal Square, Singapore 329566",1.3206909999999998,103.84311299999999,4.4,1136,"http://www.twomenbagels.com/","6304 3080"
ChIJEypzCyoP2jER5psTW5TR-AM,"Tenplus","cafe","65 Sungei Tengah Rd, Singapore 699000",1.3838021,103.7266774,4.6,1130,"http://www.tenplus.sg/","8656 8685"
ChIJ_-EOspoU2jERvfgqq4YcwNI,"Sheng Siong Supermarket","supplies","105 Canberra St, #02-05, EastBrook@Canberra 750105",1.4488842,103.8323044,4.4,1128,"http://www.shengsiong.com.sg/","6251 2692"
ChIJS7Fs2ZLDSjARRZBLhDaA-Bw,"Hunt&Hound (no outside pet)","cafe","8, Lebuh Campbell, George Town, 10100 George Town, Pulau Pinang, Malaysia",5.417154300000001,100.33571440000001,4.6,1123,"","012-588 1817"
ChIJC5kEmKf2aS4R3ONQcI0bCAk,"Pet Vet","vet","10, PET+VET Animal Clinic Indonesia, Jl. K.H. Mas Mansyur No.8A, RT.10/RW.6, Karet Tengsin, Kecamatan Tanah Abang, Kota Jakarta Pusat, Daerah Khusus Ibukota Jakarta 10220, Indonesia",-6.2053185,106.8163737,4.5,1123,"https://petvetindonesia.com/","0857-7777-2900"
ChIJSQisHW0Z2jERnTmZYc63ARI,"Bearded Bella","cafe","8 Craig Rd, Singapore 089668",1.2777283,103.8428438,4.1,1123,"http://www.beardedbella.com/","9880 0775"
ChIJy-OrtEEX2jER3ldP20jfM4U,"THE CARPENTERS BAR","cafe","28 Woodlands Sector 2, Inside Woodlands Connection Building, Singapore 737686",1.4612794,103.808044,4.5,1121,"http://www.thecarpentersbar.com.sg/","9650 2110"
ChIJe0TX9c4Z2jERbTuKH1LA9Wo,"Common Man Coffee Roasters - Joo Chiat Road","cafe","185 Joo Chiat Rd, Singapore 427456",1.3119779999999999,103.9006426,4.3,1115,"https://commonmancoffeeroasters.com/?utm_source=google&utm_medium=organic&utm_campaign=gmb_joochiat","6877 4863"
ChIJvVsiOBIU2jERTrBUwq7V8dE,"FairPrice Khatib","supplies","849 Yishun Ring Rd, #01-3701/3703 Khatib Central, Singapore 760849",1.4170914,103.8353494,4.1,1113,"https://www.fairprice.com.sg/","6755 0955"
ChIJYcdEEWg92jERUBqf552zQxQ,"Hub & Spoke Cafe","cafe","60 Airport Boulevard #01-T2S-02, Singapore Changi Airport, Singapore 819643",1.3510252999999999,103.9875069,4.1,1107,"http://hubandspoke.oddle.me/","9894 2859"
ChIJV_K1ymYZ2jER39YtGS9Cv60,"Le Jardin Cafe | Fort Canning","cafe","5 Cox Terrace, Level 2 Fort Canning Arts Centre, Singapore 179620",1.2947615,103.84692860000001,4.2,1099,"http://www.lejardin.com.sg/","8870 9977"
ChIJN7TfWTwQ2jERpX-5vRTf0Wc,"Bukit Batok West Shopping Centre","mall","150 Bukit Batok Street 11, Singapore 650150",1.3489053,103.74277119999999,4.1,1096,"",""
ChIJCaXKGjAR2jERV2b3bf4hj6Q,"FlagWhite","cafe","106 Jln Jurong Kechil, Singapore 598604",1.3408725,103.77243779999999,4.5,1095,"https://www.flagwhitecafe.com/","9894 9882"
ChIJHQfJ_y-AV4gR_VWPulOK9cY,"West Spartan Animal Hospital","vet","13220 E Wade Hampton Blvd, Greer, SC 29651, USA",34.9538559,-82.18031479999999,4.8,1090,"https://westspartananimalhospital.com/","(864) 877-3489"
ChIJB7tP28IW2jERM5DwKCTpjl0,"Ang Mo Kio Town Garden West","park","Opposite Ang Mo Kio Town Library, Ang Mo Kio Ave 6, Singapore 567740",1.3741468,103.8430281,4.3,1088,"https://www.nparks.gov.sg/contact-us","1800 471 7300"
ChIJQ6cPiSMZ2jERYP9lJruuJFA,"Hopscotch (Gardens by the Bay)","cafe","18 Marina Gardens Dr, #01-21 Bayfront Plaza (Next to Bayfront MRT Station, Singapore 018953",1.2812552,103.861362,4.5,1086,"https://www.hopscotch.sg/","6539 9653"
ChIJV6HD-Eo92jERjhfY7NEDrOM,"percolate. (Nankin Row)","cafe","3 Pickering St, #01-23 Nankin Row, Singapore 048660",1.2840924999999999,103.8479945,4.5,1082,"http://percolate.sg/","8259 0316"
ChIJA5Y36CsV2jER5zQl69wmBkc,"NOSH @ Sembawang","cafe","8 Jln Legundi, #01-13 Victory 8, Singapore 759274",1.44173,103.8236251,4.7,1079,"https://linktr.ee/noshbistro?utm_source=linktree_admin_share","8924 6058"
ChIJGZFLVvMX2jERauS-Dn0ACgg,"Surrey Hills Grocer - Woodleigh Mall (Pet Friendly)","mall|cafe|park|supplies","11 Bidadari Park Dr, #01-52/53 THE WOODLEIGH MALL, Singapore 367803",1.3390391,103.87161809999999,4.5,1072,"http://www.surreyhillsgrocer.sg/","8855 5694"
ChIJEeOWJMwb2jERwOlQm3mkxpQ,"Baker & Cook - Dempsey","cafe","30C Loewen Rd, Singapore 248839",1.3035568,103.81228809999999,4.2,1071,"http://www.bakerandcook.com/","8824 1948"
ChIJzeQ8gw0Z2jERhGLaINksUXI,"Common Man Coffee Roasters - Stanley Street","cafe","11, 12 Stanley St, Singapore 068730",1.2802902,103.84796949999999,4.3,1067,"https://commonmancoffeeroasters.com/?utm_source=google&utm_medium=organic&utm_campaign=gmb_stanley","6877 4855"
ChIJd13PYxcW2jERGmSg1kRzkZk,"FairPrice Rivervale Plaza","supplies","118 Rivervale Dr, #01-08 Rivervale Plaza, Singapore 540118",1.3855678999999999,103.9025123,4.1,1050,"https://www.fairprice.com.sg/","6881 0551"
ChIJyY1br8UZ2jERW0OpG40NfcI,"Enchanted Cafe Rangoon Road","cafe","88 Rangoon Rd, #01-04, Singapore 218374",1.3142981999999999,103.8542027,4.2,1045,"https://www.enchantedcafe.co/","8846 8000"
ChIJM8FdohIb2jERCH_Cya1rIfc,"Warm Up Cafe @ The Star Vista","cafe","1 Vista Exchange Grn, #02-10/11 The Star Vista, Singapore 138617",1.3069738,103.7884766,4.3,1044,"","8028 7323"
ChIJ83k92SKK2TERBIn3tUm-95M,"Dé Patros Café","cafe","The Promanage, Jl. Harbour Bay No.81, Sungai Jodoh, Kec. Batu Ampar, Kota Batam, Kepulauan Riau 29444, Indonesia",1.1563177,103.99427800000001,4.3,1044,"","(0778) 7415086"
ChIJtRsULDwV2jERMFcm4k5AUJ4,"NOMADS","cafe","2 The Oval, Singapore 797860",1.4086902,103.8676921,4.6,1041,"https://book.bistrochat.com/nomads","8896 3506"
ChIJmRnrx-wP2jERJn7vciQERpo,"Starbucks - Jurong Point","cafe","63 Jurong West Central 3, #03-52/52A Jurong Point, Singapore 648331",1.3388845,103.7053377,4.1,1023,"http://www.starbucks.com.sg/","6910 1085"
ChIJk4Tb_E8X2jERI63VAV5fJUw,"NAYANA Kpop Cafe & Restaurant@Flora Vista, nice Korean food@AMK Singapore, indoor Pet friendly, vegetarian options","cafe|mall","7 Ang Mo Kio Street 66, #01-13, Singapore 567708",1.3917673,103.85057979999999,4.7,1020,"http://www.nayanafood.com/",""
ChIJKQ6mHt8Z2jERGBf04ZfDJYQ,"Botany Robertson Quay","cafe","86 Robertson Quay, #01-03 Next to M Social Hotel, Singapore 238245",1.2901029,103.83720179999999,4.1,1016,"http://www.botany.com.sg/","6951 4861"
ChIJ2TQikGwZ2jERHGPeD2UcWHE,"FairPrice Tanjong Pagar Plaza","supplies","1 Tanjong Pagar Plz, #01-01, Singapore 082001",1.2758753,103.8430795,4.2,1014,"https://www.fairprice.com.sg/","6224 5703"
ChIJ2W6PLJQJ2jER-Udr8wq98ic,"NSK Trade City - Nusajaya","supplies","Lot G-01, Pusat Komersial Sunway Marketplace Persiaran Medini 6, Sunway Iskandar Bandar, 79250 Iskandar Puteri, Johor Darul Ta'zim, Malaysia",1.3973472999999998,103.6266119,4.1,1014,"http://www.nsktrade.com/","017-330 6344"
ChIJxfkTq24X2jERtVnhQe3LDUE,"Apollo Coffee Bar","cafe","65 Serangoon Garden Wy, Singapore 555961",1.3635595999999999,103.86547569999999,4,1012,"http://www.apollocoffeebar.com/","6246 3875"
ChIJD4U1PoYX2jERLWjMUd0oEQc,"Good Dog People | Singapore's Better Online Pet Shop","supplies","Appointments only , no walk-ins, 240 MacPherson Rd, Pines Industrial Building, Singapore 348574",1.3296884,103.8755661,4.8,1003,"https://gooddogpeople.com/","3129 2266"
ChIJgRt__K892jERLK-wMiITUc4,"FairPrice White Sands","supplies","1 Pasir Ris Central St 3, #B1 - 10 White Sands, Singapore 518457",1.3725642,103.9494771,4.1,1003,"https://www.fairprice.com.sg/","6585 0536"
ChIJIb64K9EZ2jER9PkKyu-_ub8,"Sheng Siong Supermarket","supplies","108 McNair Rd, Singapore 321108",1.321598,103.85958989999999,4.2,1000,"http://www.shengsiong.com.sg/","6299 3391"
ChIJYWtajLoZ2jER5-O4GcZq2EM,"The Cat Cafe - Bugis","cafe","241B Victoria St, Singapore 188030",1.3003098,103.8552031,4.1,993,"http://www.thecatcafe.sg/","6338 6815"
ChIJL2daztkZ2jERb-nA5fMiuJo,"FairPrice Lorong Limau","supplies","80 Lorong Limau, Balestier Rd, Area Office, 01-191, Singapore 320080",1.3238547,103.8558218,4,989,"https://www.fairprice.com.sg/","6256 2253"
ChIJaRSy-lE92jEROkCNQIxNdvA,"FLOCK CAFE","cafe","01-25 Tiong Bahru Estate, 78 Moh Guan Terrace, #01-25 Block 78, Singapore 162078",1.2835798,103.8302241,4.1,988,"http://flockcafe.com.sg/","6536 3938"
ChIJadntJQAb2jERr18tHt0cyEg,"Surrey Hills Grocer - One Holland Village (Pet Friendly)","mall|cafe","7 Holland Vlg Wy, #03-29 to 33 ONE, Singapore 275748",1.3120066,103.7939797,4.5,981,"https://www.surreyhillsgrocer.sg/","8189 6372"
ChIJawYHHtVOzDERs1yV2-Ad4ek,"Central Park Bandar Utama","park","Dataran Bandar Utama, Bandar Utama, 47800 Petaling Jaya, Selangor, Malaysia",3.1494069,101.6142757,4.1,971,"http://www.1utama.com.my/","03-7726 4788"
ChIJR9wDuIwQ2jERp5g9l0m9MQ0,"Rifle Range Nature Park","park","Rifle Range Rd, Singapore 589322",1.3434752,103.77940629999999,4.7,966,"https://www.nparks.gov.sg/visit/parks/park-detail/rifle-range-nature-park","6471 7808"
ChIJkQ-vvQYa2jERe6WZR9ehHXI,"Cluny Court","mall","501 Bukit Timah Rd, Singapore 259760",1.3225818,103.8142314,4.2,963,"http://www.clunycourt.com/","6467 6077"
ChIJs1eHtIYa2jERR6jOXK674Ns,"Polypet","supplies|mall|groomer","109 Clementi Street 11, #01-27/29 Sunset Way Residence, Singapore 120109",1.3219170999999998,103.77081919999999,4.6,959,"http://www.polypet.com.sg/","6779 5309"
ChIJ1WlZGHwZ2jERfe0_ZCZKyEA,"The Brewing Ground","cafe|mall|park","406 Joo Chiat Pl, #01-24 The Yards, Singapore 428084",1.3148971,103.9110412,4.5,959,"http://www.thebrewingground.sg/","8313 6092"
ChIJ01fgzLUe2jERxlhvImcbZ7g,"Quayside Isle","cafe","31 Ocean Way, Singapore 098375",1.2476808,103.8420723,4.4,958,"http://www.quaysideisle.com/","6887 3502"
ChIJewaP5BIU2jERUjsvUPiCJSw,"That Aquarium","supplies","618 Yishun Ring Rd, #01-3236, Singapore 760618",1.4188889,103.83555559999999,4.4,958,"https://thataquarium.com/","9155 0652"
ChIJnWSfmy8R2jER6liptoRmWTc,"Whisk & Paddle (Bt Gombak Park)","cafe|park","816 Bukit Batok West Ave. 5, #01-01, Singapore 659089",1.3673836,103.75106389999999,4.3,957,"http://whiskandpaddle.com.sg/","6550 2330"
ChIJQ6n9Ygw92jERM5o8IkMEhyU,"Sun Plaza Park","park","30 Tampines Ave 7, Singapore 529621",1.3588411,103.9437455,4.2,954,"https://www.nparks.gov.sg/gardens-parks-and-nature/parks-and-nature-reserves/sun-plaza-park","1800 471 7300"
ChIJb7Vpm5Ft2jERA47u1jFYMVo,"1 Tebrau Suites by Subhome","hotel","1 Tebrau, Jalan Tebrau, Off, Jln Seri Setanggi, Taman Seri Setanggi, 80250 Johor Bahru, Johor Darul Ta'zim, Malaysia",1.5015043000000001,103.7658247,4.1,954,"https://1tebrausuitesbysubhome.shop/","012-691 7851"
ChIJq_5RjPUQ2jERQZR7bzih7tw,"Hindhede Nature Park","park","Hindhede Dr, Singapore",1.3491092999999998,103.7754308,4.6,952,"https://www.nparks.gov.sg/gardens-parks-and-nature/parks-and-nature-reserves/hindhede-nature-park","1800 471 7300"
ChIJt3FaVB092jERxX-RI0O4Abg,"Giant Supermarket","supplies","9 Tampines Street 32, #01-30 Tampines Mart, Singapore 529286",1.3544193999999998,103.96002,4,952,"https://giant.sg/store/tampines-mart","6891 8100"
ChIJXwSp27MV2jERJDT8niZ3ayM,"Kit Cat Official","supplies","15 Yishun Industrial Street 1, #05-26 Win 5, Singapore 768091",1.4377887999999999,103.8442699,4.9,951,"https://kitcat.com.sg/","6455 3696"
ChIJe-fz2Cgb2jERKTZiBgSNN_E,"Plain Meredith","cafe|park","7 Holland Vlg Wy, #02-23/24, One, Singapore 275748",1.3114401,103.7936733,4.7,948,"https://www.plainmeredith.com/","8139 8849"
ChIJ2zOiSwsZ2jERpWXDnBzvrxc,"DAISO & THREEPPY @ Chinatown Point","supplies","133 New Bridge Rd, #B2 - 01 Chinatown Point, Singapore 059413",1.285676,103.8449722,4.3,945,"http://www.daisosingapore.com.sg/","6702 0042"
ChIJo8wN5qUa2jERTAxWc0A6fak,"Sheng Siong Supermarket","supplies","61 Teban Gardens Rd, Singapore 600061",1.3222501,103.7383727,4.3,944,"http://www.shengsiong.com.sg/","6896 6401"
ChIJR3_D_cwb2jERWM17cHc527o,"Carrara","cafe","2 Jalan Bukit Merah, #01-5148, Singapore 150002",1.286622,103.8069906,4.6,939,"https://www.carraracafesg.com/",""
ChIJfYtFcq4i2jERVe8R8VhEmrg,"Baker & Cook - Swan Lake","cafe","1 Swan Lake Ave, Opera Estate, Singapore 455700",1.3209168999999998,103.92428819999999,4.3,937,"https://www.bakerandcook.com/locations","8857 4275"
ChIJU6pbONuI2TERMuos6kULaO0,"Park Avenue","mall","4377+HQR, Jl. Orchard Boulevard, Belian, Kec. Batam Kota, Kota Batam, Kepulauan Riau 29444, Indonesia",1.1139782999999999,104.0644148,4.5,928,"","(0778) 7430888"
ChIJc7IqA_sP2jERCSZRunFNMoY,"FairPrice Taman Jurong Shopping Centre","supplies","399 Yung Sheng Rd, #01-35, Singapore 610399",1.3346616999999998,103.7200783,4.2,926,"https://www.fairprice.com.sg/","6266 4822"
ChIJ8QF6bwYY2jER37q17O5biXg,"Simplicité by Fresh Fruits Lab","cafe","351 Changi Rd, Singapore 419818",1.3185806,103.9095639,4.4,924,"http://www.ffl.com.sg/","6677 6741"
ChIJuzb5KOYZ2jERLUHxHfP7ApY,"The Shoppes at Marina Bay Sands","mall","10 Bayfront Ave, Singapore 018956",1.2836889,103.85918459999999,4.5,922,"https://www.marinabaysands.com/shopping.html","6688 8868"
ChIJPWtMN5kT2jERGlOypjDrJOg,"Kohepets","supplies|groomer|mall","39 Woodlands Cl, Singapore 737856",1.4378735,103.8067738,4.8,919,"https://www.kohepets.com.sg/","8511 1605"
ChIJt7NYyAYT2jERv3uw-Qx4DzU,"Pets' Station","supplies|groomer","21 Marsiling Industrial Estate Rd 9, Singapore 739175",1.4430478999999998,103.7817448,4.9,918,"https://petsstation.com.sg/","6363 1121"
ChIJx0dfzAsZ2jERTBmlVt5elE4,"Cafe Melba at Mediapolis","cafe","1 Stars Ave, #03-01 Mediacorp Campus, Singapore 138507",1.295968,103.7925581,4,916,"http://cafemelba.com.sg/","6352 2721"
ChIJMalz_5sZ2jER4nzAL2eHy1A,"Warm Up Cafe @Mackenzie Road","cafe","110 Mackenzie Rd, Singapore 228708",1.3064825,103.8472854,4.5,913,"https://warmupcafemackenzieroad.shop/","8723 2332"
ChIJpwd8kn8Z2jERptmG8rTWrsI,"Tiong Bahru Park","park","1 Henderson Rd, Singapore 159561",1.2869819,103.8247631,4.5,910,"",""
ChIJl_sOMpIZ2jERxxBnQVJpECQ,"CS Fresh Gold","supplies","290 Orchard Rd, B1-21/22 Paragon, Singapore 238859",1.3036311999999999,103.83569399999999,4.3,905,"https://coldstorage.com.sg/","6891 8100"
ChIJ-3iqIQyJ2TERYTC8ysk_xAw,"De'Chruse Pet Center Batam","groomer|vet|supplies","Blk. E No.3, Sungai Panas, Kec. Batam Kota, Kota Batam, Kepulauan Riau 29433, Indonesia",1.1327448,104.03583479999999,4.6,898,"https://www.situspemenang.com/","0822-8846-2045"
ChIJ6ad6tpIa2jERYXVn6uL9OjM,"W39 Bistro & Bakery","cafe|mall|park","39 Jln Mas Puteh, Singapore 128637",1.3084696999999998,103.7624039,4.3,897,"http://www.w39bistro.com/","8807 2421"
ChIJvU2IFW0Z2jERqVQbONHOScg,"Group Therapy Coffee - Cross Street Exchange","cafe","181 S Bridge Rd, #01-05 & #K1-04, Singapore 058743",1.2837768,103.84720709999999,4.2,889,"http://www.gtcoffee.com/","6222 2554"
ChIJ____GwsZ2jERGJbKgdy3fOo,"Hong Lim Park","park","New Bridge Rd, Singapore 059299",1.2865657,103.8465437,4.2,886,"","1800 471 7300"
ChIJaaC07KIR2jERl3-DgSWf4aE,"Pang Sua Pond","park","101 Bukit Panjang Ring Road, Saujana Rd, Singapore 679910",1.3819061,103.76551219999999,4.5,885,"https://www.pub.gov.sg/abcwaters/explore/PangSuaPond","6225 5782"
ChIJP5eoI2AX2jERvlTa2GR_bOY,"FairPrice Finest Zhong Shan Park","supplies","20 Ah Hood Rd, #02-01 Zhongshan Mall, Singapore 329984",1.3270623,103.8464807,4.3,879,"https://www.fairprice.com.sg/","6734 0536"
ChIJ-RepEJoZ2jER4WLO94msolk,"FairPrice Orchard Grand Court","supplies","131 Killiney Rd, #01-01/02/03 Grand Court, CGH Building, Singapore 239571",1.2973375000000003,103.8385362,4.2,879,"https://www.fairprice.com.sg/","6734 4450"
ChIJ6VzXLGEQ2jERXwVlpVrULtM,"Cowpresso Coffee Roasters Singapore","cafe","21 Lor Kilat, #01-07, Singapore 598123",1.3409543,103.77298809999999,4.6,878,"https://cowpressocoffee.sg/","8550 8143"
ChIJlyvzifMj2jERpKBq_QkdP0Q,"High Tide Bistro and Bar","cafe","1390 ECP, PAssion WaVe @ East Coast, Singapore 468961",1.3115115,103.9524976,4.6,875,"","9734 2649"
ChIJOaLqrA0Z2jERbeczwoSYI_Q,"Free the Robot","cafe","118 Telok Ayer St, Singapore 068587",1.281934,103.84822740000001,4.4,871,"http://www.freetherobotcoffee.com/","6438 1836"
ChIJK2GAsaYX2jER5oETfPH5A6g,"Cold Storage","supplies","23 Serangoon Central, #B2-44/45, Singapore 556083",1.3500558999999999,103.87296789999999,4.1,868,"https://coldstorage.com.sg/?utm_source=googlemybusiness&utm_campaign=serangoonnex","6891 8100"
ChIJK0ZvwuwZ2jERrDOt8DSNQjs,"PRAIRIE by Craftsmen (Joo Chiat)","cafe","462 Joo Chiat Rd, Singapore 427674",1.3061527,103.9045561,4.3,866,"https://prairie.sg/","6951 3796"
ChIJYSrE03QZ2jERw0pU54AAQvs,"BistrOne36 at Tyrwhitt","cafe","121 Tyrwhitt Rd, Singapore 207548",1.3111728000000002,103.85973129999999,4.8,859,"https://bistrone36.co/","6610 7229"
ChIJPxrZPIsV2jER9v5LjJXKSTM,"Punggol Point Park","park","Punggol Point Rd, Singapore",1.4210326,103.9111425,4.5,858,"https://m.facebook.com/pages/Punggol-Point-Park/481364852351297",""
ChIJ0Q-YiQ4Z2jERJM0_soHE-Js,"Ascott Raffles Place Singapore","hotel","2 Finlayson Green, Singapore 049247",1.2820375,103.85158,4.3,858,"https://www.discoverasr.com/en/ascott-the-residence/singapore/ascott-raffles-place-singapore?utm_source=google&utm_medium=maps&utm_campaign=hq-google-maps-alwayson--all-en-sg-sg-ascottrafflesplacesingapore--gbp&--&cid=map::gg::hq:ind:::all:en:sg:sg:ascottrafflesplacesingapore:0:gbp:0:::","6577 1688"
ChIJi0tjMTgZ2jERLCOOB3U7-D4,"Asylum Coffeehouse","cafe","311 Jln Besar, Singapore 208970",1.3113674,103.85904889999999,4.7,855,"https://www.asylumcoffeehouse.com/","8921 9875"
ChIJeUc5O7EX2jERFrzkwlzbkCE,"FairPrice Finest Blk 202 Hougang St 21","supplies","202 Hougang St 21, #01-00, Singapore 530202",1.3577279,103.88408530000001,4.2,854,"https://www.fairprice.com.sg/","6287 0702"
ChIJQ-JB8ac92jERM18jZukcWnw,"Tampines Eco Green","park","Tampines Ave 9, Singapore 520491",1.3639478,103.9482922,4.4,853,"https://www.nparks.gov.sg/visit/parks/park-detail/tampines-eco-green/",""
ChIJUwKKpSwY2jERyEZ5nF1comg,"Toh Aquarium","supplies","63 Kallang Bahru, #01-425, Singapore 330063",1.3211842999999999,103.8686041,4.4,849,"https://www.tohaquarium.com/","6904 9198"
ChIJySuAH_4FK4cRzuLjHH45PnQ,"Veterinary Emergency Group","vet","7210 W Ray Rd, Chandler, AZ 85226, USA",33.3214268,-111.96673450000002,4.7,847,"https://www.veg.com/locations/arizona/chandler?utm_source=organic_google&utm_medium=gbp_link&utm_campaign=locations_page&utm_content=chandler","(480) 847-2570"
ChIJYfjZ5wIQ2jER-5CKxpDbgEI,"Japanese Garden","park","60 Yuan Ching Rd, Singapore 619672",1.3356251,103.7311955,4.4,845,"https://www.nparks.gov.sg/contact-us",""
ChIJ4YgAeX4T2jERVlOBy85Z-Wc,"Canberra Park","park","Sembawang Cres, Singapore 750325",1.4433242,103.8180144,4.3,845,"",""
ChIJzSWzODUZ2jERZm7fIoA8ee0,"Seng House — Hainanese-Western Café in Tanjong Katong","cafe","214 Tanjong Katong Rd, Singapore 437007",1.3073245999999998,103.89527129999999,4.4,844,"http://www.senghouse.sg/","9182 6388"
ChIJB7uq5rAb2jERS4m86aRFEag,"Great Nanyang Heritage Cafe 大南洋 (Geneo)","cafe","1B Science Park Dr, B1-32, GENEO 119315",1.2923078,103.78521359999999,4.4,840,"http://greatnanyang.com.sg/",""
ChIJT15zrvk92jER4tpPBaUVzDA,"Punggol East Container Park","park","50 Punggol East, Singapore 828824",1.3935628,103.917773,4.2,839,"",""
ChIJSwNHsnoa2jERrK1XlFDICoI,"Cold Storage","supplies","293 Holland Rd, #01-01 Jelita Mall, Singapore 278628",1.3175778999999999,103.78585659999999,4.3,833,"https://coldstorage.com.sg/?utm_source=googlemybusiness&utm_campaign=jelita","6891 8100"
ChIJdU4kG5A92jERz0o6SOLHlzs,"Mainland Tropical Fish Farm","supplies","58 Kaki Bukit Industrial Terrace, Singapore 416138",1.3365947,103.9015161,4.1,832,"https://www.mainlandaquatichub.com/","6287 3883"
ChIJg9nMZhI92jERS58JBkif8g8,"FairPrice Our Tampines Hub","supplies","1 Tampines Walk, #B1-01 Our Tampines Hub, Singapore 528523",1.3536721,103.940946,4.4,830,"https://www.fairprice.com.sg/","6386 6751"
ChIJfbb9gbIN2jERJXPSJtbaoIw,"Sanctuary Pet Cremation","vet","10 Neo Tiew Lane 2, Plot B & C, Singapore 718813",1.4202237,103.7184606,5,827,"https://sanctuarypetcremation.com.sg/","9633 0991"
ChIJg_Lj4bQZ2jERWFMZFIv2zzg,"The Providore - VivoCity","cafe","1 HarbourFront Walk, #01-188, Singapore 098585",1.2649477,103.8211444,4.6,824,"https://theprovidore.com/","6221 7056"
ChIJz_AlpkMZ2jERi845_PlNXrc,"Earlybird","cafe","17 Jln Pinang, Singapore 199149",1.3028952,103.8581992,4.5,824,"https://www.facebook.com/earlybirdcafesingapore","9788 6856"
ChIJpUW1vFgZ2jERK1JWTopXcho,"The Pet Safari - VivoCity","mall|groomer|supplies|park","1 HarbourFront Walk, #03 - 03, Singapore 098585",1.2641,103.823374,4.3,824,"http://www.thepetsafari.com/sg/store_vivo.html","6376 9508"
ChIJ9WhnrQwY2jER-jYA2heV9Pw,"Mel's Place Restaurant & Bar","cafe","2A Kuo Chuan Ave, Singapore 426897",1.3075329999999998,103.90788099999999,4.2,823,"http://melsplace.com.sg/","6440 3573"
ChIJ0bLZwpcP2jERVY-kKYVtL5A,"Eating House 815","cafe","815 Jurong West Street 81, #01-210, Singapore 640815",1.3453191000000002,103.6960057,4,819,"https://www.burpple.com/blk-815-jurong-west-st-81",""
ChIJde_Sl0kS2jERbyHYOmhy2u0,"Cheval Cafe Bar Bistro","cafe","1 Equestrian Walk, Singapore Turf Club Riding Centre, Singapore 737863",1.4281829,103.7674324,4.3,818,"http://cheval.com.sg/","6269 0918"
ChIJRf-S_QUV2jERUh1VRRUHtDo,"The Patio SG","cafe|mall|park","60 Jln Mempurong, #02-01 Passionwave Bldg, Singapore 759058",1.4590410000000003,103.84395289999999,4.2,817,"https://reserve.oddle.me/en_SG/thepatio/ticket/4195",""
ChIJfcrDA48Z2jERo45o85-z2H8,"BreakfastGrill - East Coast","cafe","380 E Coast Rd, Singapore 428986",1.3086411,103.9113464,4.5,815,"https://www.breakfastgrillsg.com/","8612 8807"
ChIJiWfwdQUQ2jERTrgaZHZT4Pg,"FairPrice Jurong East","supplies","135 Jurong Gateway Rd, #01-337, Singapore 600135",1.333942,103.7402693,4.2,815,"https://www.fairprice.com.sg/","6560 8547"
ChIJMYZm8oEZ2jERFzqcK7DK5rw,"FairPrice Bukit Ho Swee","supplies","50 Havelock Rd, #01-755 The Beo Crescent, Singapore 160050",1.2898284,103.8267171,4.2,812,"https://www.fairprice.com.sg/","6278 5506"
ChIJYxtJ9QAc2jER2lgyjqJA7Vs,"Palawan Green","park","Siloso Bch Walk, Singapore",1.2501427999999999,103.81847499999999,4.4,811,"https://www.sentosa.com.sg/en/plan-your-event/palawan-green/",""
ChIJB3SXC7ZOa4gRPfPokjKKWxc,"30th Street Animal Hospital","vet","8120 East 21st St, Indianapolis, IN 46219, USA",39.796945,-86.024574,4.8,810,"https://eastindyvet.com/","(317) 383-0979"
ChIJw3DaQ4w92jERiq4bkOKxA0g,"Market Square","mall","1 Pasir Ris Cl, Singapore 519599",1.3768437999999998,103.9552975,4.4,810,"https://www.downtowneast.com.sg/","6589 1688"
ChIJf2SJA2sa2jERSrwcPU_QRvI,"Raffles Holland V Mall","mall","118 Holland Ave, Singapore 278973",1.3105304,103.79635599999999,4,809,"https://facebook.com/raffleshollandv/","6262 3501"
ChIJ_TRYOKE92jERVasC36QBWfw,"Canopy Changi City Point","cafe|mall|park","5 Changi Business Park Central 1, #01-70/71 Changi City Point, Singapore 486038",1.3336065,103.9632433,4.6,806,"https://www.canopygardendining.com/","6556 1533"
ChIJRe5m0qUX2jERaF5thYhp2ds,"Eleven Strands","cafe","66 Yio Chu Kang Rd, Singapore 545568",1.3574947,103.8755726,4.2,806,"http://www.elevenstrands.sg/","9487 1398"
ChIJ4yEk-_892jERFOSKuMKaNdg,"Canopy Changi Village","cafe","2 Netheravon Rd, Block B Civil Service Club @ Changi, Singapore 508503",1.3913305,103.98626340000001,4.7,802,"http://canopygardendining.com/","6556 1533"
ChIJd255RSI92jERbSRtpM_eukA,"DAISO @ Eastpoint Mall","supplies","3 Simei Street 6 B1 - 14, Eastpoint Mall, 3 Simei Street 6, #B1 - 14, Singapore 528833",1.3427856,103.9526953,4.3,800,"https://www.daisosingapore.com.sg/","6782 6835"
ChIJ7c0i5UUZ2jER2InGQQPBFcw,"Dough","cafe","30 Victoria St, #01-30, Singapore 187996",1.2950446,103.85173599999999,4.4,799,"http://www.doughsupply.co/",""
ChIJVwlS_k0Z2jER7Di5t1WgS2s,"East Coast Commune","cafe|mall|park","1000 ECP, #01-03, Singapore 449876",1.3013169999999998,103.9129037,4.2,796,"http://www.eccommune.com/","8950 4142"
ChIJD_tH7GIU2jERYpWt_zq8Adw,"Yishun Neighbourhood Park","park","Yishun Ave 2, Ave 7 and St 22, Singapore 752106",1.4379231,103.8353384,4.4,791,"","1800 471 7300"
ChIJjT_ThNUT2jER5XX8cPcvRTw,"The Woodgrove","mall","30 Woodlands Ave 1, Singapore 739065",1.4291794,103.78107820000001,4.3,787,"",""
ChIJV-m34hY82jERTiaT7147egA,"Chock Full Of Beans","cafe","4 Changi Village Rd, #01-2090, Singapore 500004",1.3894362,103.9873666,4.2,787,"https://www.facebook.com/cfob.changi/","8428 8203"
ChIJR6vntF0X2jERLwghKz68-hM,"Little Farms Bar+Grill, Serangoon Garden (Restaurant)","cafe|mall","1 Maju Avenue, Serangoon Garden Wy, #01-09/10/11 MyVillage at, Singapore 556679",1.3650598,103.8651072,4.6,782,"https://littlefarmscafe.com/pages/little-farms-bar-grill-serangoon","3174 1605"
ChIJSccJdgYZ2jERKCDcvV8ektw,"PS.Cafe Katong","cafe|mall|park","112 E Coast Rd, #01-01/02/03 i12 Katong, Singapore 428802",1.3055583000000002,103.90503299999999,4.3,780,"https://www.pscafe.com/pscafe-katong/?utm_source=google&utm_medium=organic&utm_campaign=gmb","6708 9288"
ChIJQ9_41soX2jERSnkjDdP6bR4,"Rise Bakehouse @ Potong Pasir","cafe","148 Potong Pasir Ave 1, #01-53, Singapore 350148",1.3326694,103.8680478,4.7,779,"http://www.risebakehouse.sg/","8928 9111"
ChIJ-wfW4X8N2jERqOY0SxJvaaw,"Bistro by Gardenasia","cafe","240 Neo Tiew Cres, Singapore 718898",1.4407938999999998,103.7287877,4,779,"https://gardenasia.com/","6898 9111"
ChIJqYMY0gFz2jERhayUZE5fTjE,"Jurrasic Aqua","supplies","182, Jalan Pahlawan 2, Taman Ungku Tun Aminah, 81300 Skudai, Johor Darul Ta'zim, Malaysia",1.5203965,103.6625356,4.4,777,"https://m.facebook.com/jurrasicaquashop/","016-716 2728"
ChIJKVfMiTQZ2jERk7IpVMwaF4c,"The Food Peeps","cafe","34 Sago St, #01-01, Singapore 059026",1.2819562,103.84393809999999,4.6,775,"http://www.thefoodpeeps.com/","6970 8035"
ChIJi2KV7gY92jERPVnJTDNeCeA,"FairPrice Tampines","supplies","475 Tampines Street 44, #01-145, N 4 Neighbourhood Centre, Singapore 520475",1.3603806999999999,103.9532074,4,774,"https://www.fairprice.com.sg/","6787 5228"
ChIJH1tUiZYZ2jERnxykUsA-LJk,"QQ Cats & Cafe","cafe|groomer|supplies","262 Balestier Rd, #01-03, Singapore 329714",1.3221540999999999,103.8531526,4.9,772,"","8229 0098"
ChIJKTlRR75y2jER8TRPnLFjVkg,"Pet Paradise Clinic","vet","4, Jalan Padi Emas 2, Bandar Baru Uda, 81200 Johor Bahru, Johor Darul Ta'zim, Malaysia",1.4952052,103.70969769999999,4.5,771,"https://linktr.ee/PetParadiseClinic","07-230 9026"
ChIJAchazzI92jERz9jSEMtC-f8,"Fat Po","cafe","10 Tebing Ln, #01-05/06, Singapore 828836",1.3931286999999999,103.91725989999999,4.1,770,"https://www.facebook.com/fatposg/","6244 4505"
ChIJoTxBzrgR2jERavGEbvzC5Ys,"Sheng Siong Supermarket","supplies","18 Teck Whye Ln, #01-95 Block 18, Singapore 680018",1.3782442000000001,103.7542891,4.2,769,"http://www.shengsiong.com.sg/","6875 0103"
ChIJlSJ2YCEY2jERRlywKQv3JpI,"FairPrice Geylang East","supplies","114 Aljunied Ave 2, #01-75, Singapore 380114",1.3217459999999999,103.886822,4.1,768,"https://www.fairprice.com.sg/","6748 8493"
ChIJrxQ45X7xaS4RHH5b8A1WCqQ,"The Cat Cabin","cafe","Jl. Kemang Raya No.31, RT.13/RW.1, Bangka, Kec. Mampang Prpt., Kota Jakarta Selatan, Daerah Khusus Ibukota Jakarta 12720, Indonesia",-6.2552547999999994,106.81415709999999,4.5,765,"","(021) 71795243"
ChIJ_2OANZjxaS4RFaJTQ2w8njs,"Kopi Cat Cafe by Groovy","cafe","Jl. Kemang Selatan VIII No.63A-B, RT.7/RW.2, Bangka, Kec. Mampang Prpt., Kota Jakarta Selatan, Daerah Khusus Ibukota Jakarta 12730, Indonesia",-6.2672571999999995,106.8143343,4.8,759,"http://kopicatcafe.id/","0811-1000-8809"
ChIJAcrUCiIX2jERugq6oHt9OgQ,"Bishan North Shopping Mall","mall","282 Bishan Street 22, Singapore 570282",1.3582587,103.844478,4.1,758,"",""
ChIJl6naVH6J2TERcOZSTL_ILTw,"Lee's Cafe","cafe","Blk. J, Jl. Komp. Penuin Centre No.1-2, Batu Selicin, Kec. Lubuk Baja, Kota Batam, Kepulauan Riau 29444, Indonesia",1.1364737,104.0098419,4.4,757,"https://youtu.be/gVfwtgMh_lw","0811-7788-330"
ChIJpWI3pEUW2jERLtdlixr3ll8,"SOD Cafe","cafe","51 Hougang Ave 9, #01-03 Ci Yuan Community Centre, Singapore 538776",1.3752149,103.88293499999999,4.3,757,"https://www.sodcafe.com.sg/","8128 3506"
ChIJp4X-1p8T2jERzNBrW4lhAlM,"Little Bun Cafe Best Steam Brioches in JB / 100% Sourdough / Big Breakfast / Creamy Pasta / Desserts Cake / Coffee","cafe","G-08 , Eco Nest Apartment Jalan Eko Botanic 3/5, Taman, Persiaran Eko Botani, 79100 Gelang Patah, Johor Darul Ta'zim, Malaysia",1.4389028,103.6192806,4.7,754,"http://www.instagram.com/littlebun.cafe","016-763 2623"
ChIJj0hhrjcW2jER-_T4HO6YIZI,"FairPrice Kang Kar Mall","supplies","100 Hougang Ave 10, #01-01/#02-01 Kang Kar Mall Singapore 538767",1.3719805,103.8940198,4.1,751,"https://www.fairprice.com.sg/","6385 8040"
ChIJ-RBMrsUZ2jER_mDRCpfHAy4,"PÖONSTI/Old Hen Coffee (NUS)","cafe","11 Kent Ridge Dr, #01-02, Singapore 119244",1.2931827999999999,103.7736341,4.5,749,"https://www.oldhencoffee.com/",""
ChIJsdDhIQgY2jERTCtDVYq3uzs,"Telok Kurau Park","park","151 Lorong J Telok Kurau, Singapura 423466",1.3156005,103.91429339999999,4.4,747,"http://www.nparks.gov.sg/","1800 471 7300"
ChIJ42AXpL492jER0-jyMMmixow,"Sheng Siong Supermarket","supplies","623 Elias Rd, #B1-01, Singapore 510623",1.3778808,103.9422251,4.2,743,"http://www.shengsiong.com.sg/","6585 1027"
ChIJyY-7kAUY2jERtMOcrBatS9k,"That Aquarium","supplies","284 Changi Rd, Singapore 419763",1.3176459999999999,103.90648399999999,4.5,740,"https://thataquarium.com/","9780 1839"
ChIJzTLtYUlfwokREss7JqDS5qo,"Château le Woof","cafe","31-01 Vernon Blvd, Astoria, NY 11106, USA",40.7690322,-73.9356457,4.6,738,"http://www.chateaulewoof.com/","(718) 626-9663"
ChIJWUHo7rAZ2jERRoSd-ZKLCc8,"Meomi Cat Cafe","cafe","668 N Bridge Rd, Singapore 188801",1.3015466999999998,103.85835,4.6,732,"https://www.facebook.com/meomicatcafe","6296 0339"
ChIJm5Dkk7IT2jERf7r_K9iR2yQ,"FairPrice Kampung Admiralty","supplies","676 Woodlands Drive 71 B1, #02 Kampung Admiralty, Singapore 730676",1.4397745,103.80080559999999,4.1,727,"https://www.fairprice.com.sg/","6258 0925"
ChIJKQL3vrEZ2jERKVR48SMZPhA,"PARKROYAL Serviced Suites Singapore","hotel","7500A Beach Rd, #01-345/346 The Plaza, Singapore 199591",1.2996218,103.86063899999999,4.3,724,"https://www.panpacific.com/en/serviced-suites/pr-ss-singapore.html?utm_source=google&utm_medium=business_listing&utm_campaign=googlemybusiness","6296 2511"
ChIJnV4ZVGoa2jERtOxCkkl9xvA,"CS Fresh @ Holland Shopping Centre","mall","211 Holland Ave, #01-02,04,05 Holland Shopping Ctr, Singapore 278967",1.3101604,103.7954036,4.1,720,"https://coldstorage.com.sg/?utm_source=googlemybusiness&utm_campaign=hollandvillage","6891 8100"
ChIJWXP8oXAZ2jER55ml-GX1Mb4,"Drips Bakery Cafe @ Tiong Bahru","cafe","82 Tiong Poh Rd, #01-05, Singapore 160082",1.2835972,103.83402079999999,4,720,"http://www.drips.com.sg/","6222 0400"
ChIJ84Jc86w92jER_qsWlRQZx6g,"Giant","supplies","440 Pasir Ris Drive 4, #01-01, Singapore 510440",1.3687428,103.9586745,4,718,"https://giant.sg/store/pasir-ris-440","6891 8100"
ChIJhf6OFJcX2jERJlk84sRzhhk,"Society for the Prevention of Cruelty to Animals (SPCA)","vet","50 Sungei Tengah Rd, Singapore 699012",1.3804733999999999,103.7321005,4.4,715,"https://spca.org.sg/","6287 5355"
